{"business_id":"1QNkTUtdi2yksBhxPpFV4A","full_address":"4701 W Thunderbird Rd\nGlendale, AZ 85306","open":true,"categories":["Colleges & Universities","Education"],"city":"Glendale","review_count":6,"name":"Arizona State University West","neighborhoods":[],"longitude":-112.1599137,"state":"AZ","stars":4.5,"latitude":33.6106211,"type":"business"}
{"business_id":"dRXOYc7QX61GtTETiXEVJg","full_address":"230 E University Dr\nTempe, AZ 85281","open":true,"categories":["Churches","Religious Organizations"],"city":"Tempe","review_count":4,"name":"All Saints Catholic Newman Center","neighborhoods":[],"longitude":-111.935733,"state":"AZ","stars":5.0,"latitude":33.422319,"type":"business"}
{"business_id":"GCs6-N-8CalT4L2_nNas7A","full_address":"14891 N. Northsight Blvd\nSte 121\nScottsdale, AZ 85260","open":true,"categories":["Skin Care","Day Spas","Tanning","Beauty & Spas"],"city":"Scottsdale","review_count":15,"name":"Canyon Falls Spa & Salon","neighborhoods":[],"longitude":-111.8963279,"state":"AZ","stars":4.5,"latitude":33.620562,"type":"business"}
{"business_id":"LFOfaMvC6g7huKW5e35nsQ","full_address":"13725 W Bell Rd\nSurprise, AZ 85374","open":true,"categories":["Fast Food","Restaurants"],"city":"Surprise","review_count":15,"name":"Chick Fil-A","neighborhoods":[],"longitude":-112.3534314,"state":"AZ","stars":4.0,"latitude":33.6385871,"type":"business"}
{"business_id":"3OuewoNUlHOpV5Qmsa7eMg","full_address":"Chandler Fashion Center\n3111 W Chandler Blvd\nChandler, AZ 85226","open":true,"categories":["Women's Clothing","Fashion","Shopping"],"city":"Chandler","review_count":3,"name":"White House Black Market","neighborhoods":[],"longitude":-111.897967,"state":"AZ","stars":4.0,"latitude":33.3022462,"type":"business"}
{"business_id":"Ta-fY1c_E8qHBBDQGyxPkg","full_address":"2401 E Camelback Rd\nPhoenix, AZ 85016","open":true,"categories":["American (New)","Restaurants"],"city":"Phoenix","review_count":21,"name":"Bistro 24","neighborhoods":[],"longitude":-112.02943,"state":"AZ","stars":4.0,"latitude":33.508711,"type":"business"}
{"business_id":"tfVKzEDu8XYyP8KO1dsNvQ","full_address":"4041 E Thomas Rd\nSte 124\nPhoenix, AZ 85018","open":true,"categories":["Burgers","American (Traditional)","Restaurants"],"city":"Phoenix","review_count":42,"name":"Two Hippies Gnarly Burger Joint","neighborhoods":[],"longitude":-111.9949936867,"state":"AZ","stars":4.5,"latitude":33.479742069,"type":"business"}
{"business_id":"pfTwzep_4hRTX_jXoi38cw","full_address":"802 E Indian School Rd\nPhoenix, AZ 85073","open":true,"categories":["Burgers","Restaurants"],"city":"Phoenix","review_count":122,"name":"Two Hippies Magic Mushroom Burgers","neighborhoods":[],"longitude":-112.063756,"state":"AZ","stars":3.5,"latitude":33.495024,"type":"business"}
{"business_id":"OSlTIcDNSSt_83ciKwT1Xg","full_address":"5700 E McDonald Dr\nParadise Valley, AZ 85253","open":true,"categories":["Bars","Nightlife","Lounges"],"city":"Paradise Valley","review_count":61,"name":"Jade Bar","neighborhoods":[],"longitude":-111.9595033,"state":"AZ","stars":4.0,"latitude":33.5222185,"type":"business"}
{"business_id":"1PWBVeIGZSdLdabs_5HUCg","full_address":"6070 W. Bell Road\nSuite A-111\nGlendale, AZ 85308","open":true,"categories":["Professional Services","Television Service Providers","Home Services","Internet Service Providers"],"city":"Glendale","review_count":4,"name":"Cox Residential Digital Solutions Store","neighborhoods":[],"longitude":-112.1895256,"state":"AZ","stars":2.5,"latitude":33.6387383,"type":"business"}
{"business_id":"OCmmPs_5NBt65ZY7OuG-lA","full_address":"3300 N Central Ave Lbby\nPhoenix, AZ 85012","open":true,"categories":["Sandwiches","Restaurants"],"city":"Phoenix","review_count":3,"name":"Sam's Deli Mart","neighborhoods":[],"longitude":-112.0957474,"state":"AZ","stars":4.0,"latitude":33.6481997,"type":"business"}
{"business_id":"MVOTSYP8m-PcI3SqVJTKDg","full_address":"7018 E Main St\nScottsdale, AZ 85251","open":false,"categories":["Restaurants"],"city":"Scottsdale","review_count":3,"name":"Mabel Murphy's","neighborhoods":[],"longitude":-111.929751,"state":"AZ","stars":2.5,"latitude":33.49336,"type":"business"}
{"business_id":"iRg16D8dWjmv70NF68kgRA","full_address":"7045 E 3rd Ave\nScottsdale, AZ 85251","open":false,"categories":["Restaurants","Italian"],"city":"Scottsdale","review_count":46,"name":"Crudo","neighborhoods":[],"longitude":-111.929344,"state":"AZ","stars":4.0,"latitude":33.4961,"type":"business"}
{"business_id":"2F2fmce-AzqlSrmFU-JWZA","full_address":"2855 Ray Rd\nSte 7\nChandler, AZ 85224","open":false,"categories":["Pizza","Restaurants"],"city":"Chandler","review_count":7,"name":"Z Pizza","neighborhoods":[],"longitude":-111.8904425,"state":"AZ","stars":3.5,"latitude":33.3203241,"type":"business"}
{"business_id":"sZjUun_I_z1bngWmFcMuRQ","full_address":"222 W Clarendon Ave\nPhoenix, AZ 85073","open":true,"categories":["Home Services","Real Estate","Apartments"],"city":"Phoenix","review_count":3,"name":"Clarendon Park Apartments","neighborhoods":[],"longitude":-112.077494,"state":"AZ","stars":2.5,"latitude":33.491985,"type":"business"}
{"business_id":"84FqEj70SuGW22I2l6SxdQ","full_address":"3134 W Carefree Hwy\nPhoenix, AZ 85086","open":true,"categories":["Pizza","Restaurants"],"city":"Phoenix","review_count":3,"name":"Ray's Pizza","neighborhoods":[],"longitude":-112.127874,"state":"AZ","stars":4.5,"latitude":33.7999505,"type":"business"}
{"business_id":"KszjzV0F4WqkKFH_-5fHmQ","full_address":"10989 E Dynamite Blvd\nSte 102\nScottsdale, AZ 85262","open":true,"categories":["Pizza","Restaurants"],"city":"Scottsdale","review_count":6,"name":"Rosati's Pizza","neighborhoods":[],"longitude":-111.860187,"state":"AZ","stars":3.5,"latitude":33.750575,"type":"business"}
{"business_id":"ns64otnQ-WzkjsVS2vVK6g","full_address":"12251 N 51st Ave\nGlendale, AZ 85304","open":true,"categories":["Auto Repair","Automotive","Tires"],"city":"Glendale","review_count":7,"name":"Community Tire Pros & Auto Repair","neighborhoods":[],"longitude":-112.16824,"state":"AZ","stars":4.0,"latitude":33.598242,"type":"business"}
{"business_id":"g_GtGyfk8jnwrCxhfkfBUQ","full_address":"4802 E Ray Rd\nSte 19\nPhoenix, AZ 85044","open":true,"categories":["Oral Surgeons","Health & Medical","Dentists","General Dentistry","Cosmetic Dentists"],"city":"Phoenix","review_count":5,"name":"Imagine Dental","neighborhoods":[],"longitude":-111.979811,"state":"AZ","stars":5.0,"latitude":33.320389,"type":"business"}
{"business_id":"j7-YRDU63fw975an55zHGg","full_address":"Zam Zam Whole Foods\n1638 N 40th St\nPhoenix, AZ 85008","open":true,"categories":["Indian","Pakistani","Restaurants"],"city":"Phoenix","review_count":12,"name":"Z-Grill","neighborhoods":[],"longitude":-111.9958498,"state":"AZ","stars":4.0,"latitude":33.4670146,"type":"business"}
{"business_id":"LY4WyxiRnmQTpo-9tGXetA","full_address":"4444 N 32nd St Ste 208\nPhoenix, AZ 85018","open":true,"categories":["Health & Medical","Dentists","General Dentistry","Cosmetic Dentists"],"city":"Phoenix","review_count":8,"name":"Harris Dental","neighborhoods":[],"longitude":-112.0131305,"state":"AZ","stars":4.0,"latitude":33.5024039,"type":"business"}
{"business_id":"9KWa4gOWYmkzDJjwBlenUg","full_address":"18501 N Thompson Peak Pkwy\nScottsdale, AZ 85255","open":true,"categories":["Active Life","Gyms","Fitness & Instruction"],"city":"Scottsdale","review_count":20,"name":"DC Ranch Village Health Club and Spa","neighborhoods":[],"longitude":-111.8660594,"state":"AZ","stars":5.0,"latitude":33.6561934,"type":"business"}
{"business_id":"t4pkeGscooStLjy-Js5Byw","full_address":"16447 N Scottsdale Rd\nSte 101\nScottsdale, AZ 85254","open":true,"categories":["Greek","Mediterranean","Restaurants"],"city":"Scottsdale","review_count":45,"name":"Daphne's California Greek","neighborhoods":[],"longitude":-111.9240653515,"state":"AZ","stars":3.0,"latitude":33.6356670166,"type":"business"}
{"business_id":"FWAQk5GHVnWsVzTuL9F8rA","full_address":"2990 E Germann Rd\nChandler, AZ 85249","open":true,"categories":["Hawaiian","Restaurants"],"city":"Chandler","review_count":25,"name":"Ono Hawaiian BBQ","neighborhoods":[],"longitude":-111.7906859,"state":"AZ","stars":2.5,"latitude":33.2774461,"type":"business"}
{"business_id":"-CYr479M7Y49UqIPwFcjEg","full_address":"23425 N 39th Drive\nSuite 106\nGlendale, AZ 85310","open":true,"categories":["Food","Coffee & Tea"],"city":"Glendale","review_count":4,"name":"Starbucks Corporation","neighborhoods":[],"longitude":-112.142065,"state":"AZ","stars":5.0,"latitude":33.699198,"type":"business"}
{"business_id":"tr_Fr0RHF45P-IBYZrNELQ","full_address":"2470 S Val Vista Dr\nSte 101\nGilbert, AZ 85295","open":true,"categories":["Local Services","Fashion","Shopping","Printing Services"],"city":"Gilbert","review_count":3,"name":"Tees and More","neighborhoods":[],"longitude":-111.7559746,"state":"AZ","stars":5.0,"latitude":33.3054789,"type":"business"}
{"business_id":"CDY7AE5HWBy0TJXCakqLBQ","full_address":"1534 E Ray Rd\nGilbert, AZ 85296","open":true,"categories":["Pizza","Restaurants"],"city":"Gilbert","review_count":4,"name":"Barro's Pizza","neighborhoods":[],"longitude":-111.757177,"state":"AZ","stars":4.5,"latitude":33.32238,"type":"business"}
{"business_id":"vvv1MV3X-Z60ljjcPdpjkg","full_address":"80 E Highland Street\nSuite 1\nChandler, AZ 85225","open":true,"categories":["Auto Repair","Automotive"],"city":"Chandler","review_count":6,"name":"Lewis Hitches","neighborhoods":[],"longitude":-111.8402289,"state":"AZ","stars":5.0,"latitude":33.3316059,"type":"business"}
{"business_id":"plPRO44rGZHQWyOzgH-5ig","full_address":"11445 E Via Linda\nScottsdale, AZ 85259","open":true,"categories":["Local Services","Shipping Centers"],"city":"Scottsdale","review_count":4,"name":"The UPS Store","neighborhoods":[],"longitude":-111.835573,"state":"AZ","stars":2.0,"latitude":33.5894645,"type":"business"}
{"business_id":"9TJIYL_2C-JYmm9Ye6J66w","full_address":"2034 E Southern Ave\nMesa, AZ 85204","open":true,"categories":["Breakfast & Brunch","Restaurants"],"city":"Mesa","review_count":8,"name":"Egg & I Cafe","neighborhoods":[],"longitude":-111.7872721,"state":"AZ","stars":2.0,"latitude":33.3939166,"type":"business"}
{"business_id":"jSfTG3uDq4WtTKmUqIrrng","full_address":"14 E Pierce St\nPhoenix, AZ 85004","open":true,"categories":["Food","Coffee & Tea"],"city":"Phoenix","review_count":4,"name":"Xanadu Coffee Co","neighborhoods":[],"longitude":-112.0737079,"state":"AZ","stars":5.0,"latitude":33.4563262,"type":"business"}
{"business_id":"2kZiyGqzB5Lnc0cZgHCOfw","full_address":"10810 N Tatum Blvd\nSte 108\nPhoenix, AZ 85028","open":true,"categories":["Active Life","Gyms","Trainers","Fitness & Instruction"],"city":"Phoenix","review_count":4,"name":"Orangetheory Fitness Paradise Valley","neighborhoods":[],"longitude":-111.9788671,"state":"AZ","stars":5.0,"latitude":33.5839581,"type":"business"}
{"business_id":"edjCywtqffQ8__vM7POZbw","full_address":"4340 East Indian School Rd\nPhoenix, AZ 85018","open":true,"categories":["Mexican","Restaurants"],"city":"Phoenix","review_count":27,"name":"Rubio's Fresh Mexican Grill","neighborhoods":[],"longitude":-111.988131,"state":"AZ","stars":4.0,"latitude":33.495496,"type":"business"}
{"business_id":"9Y3aQAVITkEJYe5vLZr13w","full_address":"4400 N Scottsdale Rd\nScottsdale, AZ 85251","open":true,"categories":["Breakfast & Brunch","American (Traditional)","Restaurants"],"city":"Scottsdale","review_count":290,"name":"The Breakfast Club","neighborhoods":[],"longitude":-111.9264093,"state":"AZ","stars":3.5,"latitude":33.500545,"type":"business"}
{"business_id":"QKD4PtM5ue3OMYm2WK4Quw","full_address":"1368 N Cooper Rd\nGilbert, AZ 85233","open":true,"categories":[],"city":"Gilbert","review_count":3,"name":"Denny's Restaurant","neighborhoods":[],"longitude":-111.807344,"state":"AZ","stars":2.5,"latitude":33.374555,"type":"business"}
{"business_id":"5WrufDAm8eSDGfzSAcD9_A","full_address":"1290 N Scottsdale Road\nTempe, AZ 85281","open":false,"categories":["Restaurants"],"city":"Tempe","review_count":3,"name":"Layalena","neighborhoods":[],"longitude":-111.9265732,"state":"AZ","stars":2.5,"latitude":33.4426352,"type":"business"}
{"business_id":"hXTKcUf44oTTQAbhh4iC7Q","full_address":"4370 S Miller Rd\nBuckeye, AZ 85326","open":true,"categories":["Mexican","Restaurants"],"city":"Buckeye","review_count":11,"name":"Filiberto's Mexican Food","neighborhoods":[],"longitude":-112.5910284,"state":"AZ","stars":3.0,"latitude":33.3889234,"type":"business"}
{"business_id":"plL7-_-KJzjiaow_aSfQxw","full_address":"10865 N Tatum Blvd\nPhoenix, AZ 85028","open":true,"categories":["Shopping","Drugstores","Beauty & Spas","Food","Convenience Stores","Cosmetics & Beauty Supply"],"city":"Phoenix","review_count":3,"name":"Walgreens","neighborhoods":[],"longitude":-111.9777841,"state":"AZ","stars":2.5,"latitude":33.5833442,"type":"business"}
{"business_id":"WwTK9w1qu4h28a63gFz25A","full_address":"JW Marriott Desert Ridge\n5350 E Marriott Dr\nPhoenix, AZ 85054","open":true,"categories":["Steakhouses","Restaurants"],"city":"Phoenix","review_count":23,"name":"Meritage Steakhouse","neighborhoods":[],"longitude":-111.966112,"state":"AZ","stars":3.5,"latitude":33.683479,"type":"business"}
{"business_id":"w85pRiy-a6Vo9DyMc8LnxA","full_address":"511 W Adams Street\nPhoenix, AZ 85003","open":true,"categories":["Television Stations","Mass Media"],"city":"Phoenix","review_count":5,"name":"Ksaz-Tv 10-Fox","neighborhoods":[],"longitude":-112.080813,"state":"AZ","stars":2.0,"latitude":33.44877,"type":"business"}
{"business_id":"pk0vem-ismpPnVeTIG0Q5g","full_address":"4609 E Chandler Blvd\nPhoenix, AZ 85048","open":true,"categories":["American (Traditional)","Restaurants"],"city":"Phoenix","review_count":6,"name":"Applebee's Neighborhood Grill & Bar","neighborhoods":[],"longitude":-111.982854,"state":"AZ","stars":1.5,"latitude":33.304682,"type":"business"}
{"business_id":"qehVblgSQdpiP_qWo1MFBg","full_address":"1030 E Liberty Ln\nPhoenix, AZ 85048","open":true,"categories":["Active Life","Gyms","Fitness & Instruction"],"city":"Phoenix","review_count":8,"name":"YMCA","neighborhoods":[],"longitude":-112.059835,"state":"AZ","stars":4.0,"latitude":33.296777,"type":"business"}
{"business_id":"EYFZcfsrhdRlxoZVlgMIFw","full_address":"10685 W Papago Fwy\nAvondale, AZ 85323","open":true,"categories":["Automotive","Auto Parts & Supplies","Car Dealers"],"city":"Avondale","review_count":12,"name":"Salazar Kia","neighborhoods":[],"longitude":-112.288744,"state":"AZ","stars":3.5,"latitude":33.458621,"type":"business"}
{"business_id":"LibQv6uJiktJh7U3beNA2g","full_address":"20775 N Pima Rd\nScottsdale, AZ 85255","open":false,"categories":["Chinese","Restaurants"],"city":"Scottsdale","review_count":3,"name":"Flo's Hong Kong Food Market","neighborhoods":[],"longitude":-111.8905084,"state":"AZ","stars":2.5,"latitude":33.6721301,"type":"business"}
{"business_id":"HxTqLoDSfM9NPjglOzOLqA","full_address":"1234 W Bell Rd\nPhoenix, AZ 85023","open":true,"categories":["Auto Repair","Automotive","Auto Parts & Supplies","Car Dealers"],"city":"Phoenix","review_count":11,"name":"Chapman Mazda","neighborhoods":[],"longitude":-112.0898,"state":"AZ","stars":3.5,"latitude":33.64073,"type":"business"}
{"business_id":"dRqSg5XsSZtuZchluGR8jQ","full_address":"6801 Glen Harbor Blvd.\nSte 107C\nGlendale, AZ 85307","open":true,"categories":["Professional Services"],"city":"Glendale","review_count":3,"name":"Arizona Flight Training Center","neighborhoods":[],"longitude":-112.297783,"state":"AZ","stars":5.0,"latitude":33.529018,"type":"business"}
{"business_id":"_nixwTDJAfdLByIQs4rzig","full_address":"1548 E Cocopah St\nPhoenix, AZ 85034","open":true,"categories":["Food","Desserts","Ice Cream & Frozen Yogurt"],"city":"Phoenix","review_count":5,"name":"Angelo's Italian Ice and Gelato","neighborhoods":[],"longitude":-112.0479151,"state":"AZ","stars":2.5,"latitude":33.4324285,"type":"business"}
{"business_id":"CbeUolLDSq5kZ-82UpDLPQ","full_address":"North of Arizona Canal, West of 40th St\nPhoenix, AZ 85018","open":true,"categories":["Active Life","Hiking"],"city":"Phoenix","review_count":3,"name":"Bat Cave","neighborhoods":[],"longitude":-111.9984054565,"state":"AZ","stars":4.0,"latitude":33.5146350358,"type":"business"}
{"business_id":"ZlvVCqFKTMK4rBkTQzVBpA","full_address":"1515 N 7th  Ave\nSte 140\nPhoenix, AZ 85003","open":true,"categories":["Sandwiches","Restaurants"],"city":"Phoenix","review_count":15,"name":"Jersey Mike's Subs","neighborhoods":[],"longitude":-112.08241,"state":"AZ","stars":3.5,"latitude":33.465504,"type":"business"}
{"business_id":"khe1MDgeWH6Es7yuTMeN7g","full_address":"Sachi Salon and Spa\n4821 N Scottsdale Rd\nScottsdale, AZ 85251","open":true,"categories":["Hair Salons","Beauty & Spas"],"city":"Scottsdale","review_count":3,"name":"Jodi Salvatore","neighborhoods":[],"longitude":-111.925374,"state":"AZ","stars":2.5,"latitude":33.506582,"type":"business"}
{"business_id":"jf4RUa9EQO37hqxRCxbEXQ","full_address":"15111 N Hayden Rd\nSte 110\nScottsdale, AZ 85260","open":true,"categories":["Vietnamese","Restaurants"],"city":"Scottsdale","review_count":65,"name":"Saigon Nites Vietnamese Cuisine","neighborhoods":[],"longitude":-111.90459,"state":"AZ","stars":3.5,"latitude":33.622009,"type":"business"}
{"business_id":"T2K-uBbU56bzGUuxs7ws5A","full_address":"Sky Harbor International Airport\nTerminal 4, Gate B12\nPhoenix, AZ 85034","open":true,"categories":["Fast Food","Sandwiches","Restaurants"],"city":"Phoenix","review_count":5,"name":"Quiznos","neighborhoods":[],"longitude":-112.0178286,"state":"AZ","stars":2.0,"latitude":33.4382789,"type":"business"}
{"business_id":"WKvjegSKpyXN4XYg1yzpow","full_address":"1445 W Southern Ave\nFiesta Mall, 2nd level\nMesa, AZ 85209","open":true,"categories":["Food","Desserts"],"city":"Mesa","review_count":3,"name":"Lombardo Gelato","neighborhoods":[],"longitude":-111.8314724,"state":"AZ","stars":4.5,"latitude":33.4151843,"type":"business"}
{"business_id":"DjdA1xbHki_lopCSxf-Egg","full_address":"27375 N Alma School Pkwy\nScottsdale, AZ 85255","open":true,"categories":["Burgers","Bars","Hot Dogs","Nightlife","Restaurants"],"city":"Scottsdale","review_count":81,"name":"Greasewood Flat","neighborhoods":[],"longitude":-111.8457878,"state":"AZ","stars":4.0,"latitude":33.732058,"type":"business"}
{"business_id":"DJz-fGa44UK9AzHOmqwRzg","full_address":"7600 W Arrowhead Towne Center\nGlendale, AZ 85308","open":true,"categories":["Department Stores","Fashion","Shopping"],"city":"Glendale","review_count":5,"name":"Macy's","neighborhoods":[],"longitude":-112.2222212,"state":"AZ","stars":3.5,"latitude":33.6420602,"type":"business"}
{"business_id":"wGAehOy0jG02k_FS5sx8CQ","full_address":"1616 W Ruby Dr\nTempe, AZ 85284","open":true,"categories":["Active Life","Gyms","Trainers","Fitness & Instruction"],"city":"Tempe","review_count":56,"name":"Life Time Fitness","neighborhoods":[],"longitude":-111.9647327,"state":"AZ","stars":4.5,"latitude":33.3402863,"type":"business"}
{"business_id":"s9-RFuC3dFuht771mvFimA","full_address":"2325 E Rio Salado Pkwy\nTempe, AZ 85281","open":true,"categories":["Thrift Stores","Shopping"],"city":"Tempe","review_count":3,"name":"ASU Surplus","neighborhoods":[],"longitude":-111.8902622,"state":"AZ","stars":3.5,"latitude":33.4291983,"type":"business"}
{"business_id":"JIhQbJqFNcao-RkB8WPqdw","full_address":"3015 E Main St\nSuite 105\nMesa, AZ 85213","open":true,"categories":["Auto Repair","Automotive"],"city":"Mesa","review_count":3,"name":"A & E Automotive","neighborhoods":[],"longitude":-111.7657266,"state":"AZ","stars":3.5,"latitude":33.4150805,"type":"business"}
{"business_id":"VPwDQ-gsWAg44afMdNWKaA","full_address":"2412 E Greenway Rd\nPhoenix, AZ 85032","open":true,"categories":["Buffets","Chinese","Restaurants"],"city":"Phoenix","review_count":17,"name":"Lim's Chinese Buffet","neighborhoods":[],"longitude":-112.0301549,"state":"AZ","stars":3.5,"latitude":33.6264522,"type":"business"}
{"business_id":"HDIrBC_qURu-Hxt0WSF2aA","full_address":"13402 N Cave Creek Rd\nPhoenix, AZ 85022","open":true,"categories":["Auto Repair","Automotive"],"city":"Phoenix","review_count":3,"name":"Swedish Auto Werks","neighborhoods":[],"longitude":-112.0365837,"state":"AZ","stars":3.5,"latitude":33.6079458,"type":"business"}
{"business_id":"tAmevVP8B7PiWxcJ0PlYVA","full_address":"5223 N Central Ave\nPhoenix, AZ 85012","open":true,"categories":["Food","Ice Cream & Frozen Yogurt","Coffee & Tea","Desserts"],"city":"Phoenix","review_count":105,"name":"Churn","neighborhoods":[],"longitude":-112.0734885,"state":"AZ","stars":4.0,"latitude":33.5136394,"type":"business"}
{"business_id":"DbI6ezKctN4Z5SV7LvG4Sg","full_address":"10781 N. Frank Lloyd Wright Blvd\nScottsdale, AZ 85259","open":true,"categories":["Food","Grocery"],"city":"Scottsdale","review_count":17,"name":"Fresh & Easy Neighborhood Market","neighborhoods":[],"longitude":-111.834316,"state":"AZ","stars":4.5,"latitude":33.583796,"type":"business"}
{"business_id":"tnqT1SOWu3U8SnAXNpsmWQ","full_address":"6058 N. 16th St.\nPhoenix, AZ 85016","open":true,"categories":["Pets","Pet Stores"],"city":"Phoenix","review_count":5,"name":"Kodi's Natural Pet Foods","neighborhoods":[],"longitude":-112.0476197,"state":"AZ","stars":4.5,"latitude":33.5252117,"type":"business"}
{"business_id":"VuPhv9CNIHLOzS2JeDwLOA","full_address":"228 S 24th St\nPhoenix, AZ 85034","open":false,"categories":["Breakfast & Brunch","American (Traditional)","Restaurants"],"city":"Phoenix","review_count":4,"name":"Waffle House Restaurant","neighborhoods":[],"longitude":-112.030738,"state":"AZ","stars":4.0,"latitude":33.445002,"type":"business"}
{"business_id":"hCzGRe0NcB0UQFxxypc6Gw","full_address":"Phoenix, AZ 85050","open":true,"categories":["Local Services","Web Design","IT Services & Computer Repair","Professional Services"],"city":"Phoenix","review_count":4,"name":"SharpieTech","neighborhoods":[],"longitude":-112.0182329,"state":"AZ","stars":5.0,"latitude":33.6629442,"type":"business"}
{"business_id":"zw2iJahOnSxlzmRlF4al6g","full_address":"7240 E Main St\nSte C\nScottsdale, AZ 85251","open":true,"categories":["Food","Specialty Food","Sandwiches","Restaurants"],"city":"Scottsdale","review_count":38,"name":"The Cider Mill Gourmet Market & Sandwich Shop","neighborhoods":[],"longitude":-111.925028,"state":"AZ","stars":4.0,"latitude":33.493385,"type":"business"}
{"business_id":"P-sbKREdeN64F6g_eJIDdA","full_address":"2924 N Scottsdale Rd\nScottsdale, AZ 85251","open":true,"categories":["Books, Mags, Music & Video","Shopping","Adult"],"city":"Scottsdale","review_count":7,"name":"Zorba's Adult Shop","neighborhoods":[],"longitude":-111.926552,"state":"AZ","stars":4.0,"latitude":33.481209,"type":"business"}
{"business_id":"uf6gvmoJNW-tne9xGwTP3A","full_address":"3175 E. Thomas Road\nPhoenix, AZ 85016","open":true,"categories":["Food","Coffee & Tea"],"city":"Phoenix","review_count":6,"name":"Starbucks","neighborhoods":[],"longitude":-112.0134407,"state":"AZ","stars":2.5,"latitude":33.4804821,"type":"business"}
{"business_id":"FH6lw8PhDCp6TCs6HAP6bA","full_address":"7014 E Camelback Rd\nScottsdale, AZ 85251","open":true,"categories":["Electronics","Computers","Shopping"],"city":"Scottsdale","review_count":19,"name":"Microsoft Store","neighborhoods":[],"longitude":-111.9296765,"state":"AZ","stars":4.0,"latitude":33.5025941,"type":"business"}
{"business_id":"9Wy2CxVwnKoT5X4GrGzfyw","full_address":"107 W Honeysuckle St\nLitchfield Park, AZ 85340","open":true,"categories":["Pizza","Restaurants"],"city":"Litchfield Park","review_count":7,"name":"Deno's Pizza","neighborhoods":[],"longitude":-112.3595377,"state":"AZ","stars":3.5,"latitude":33.4945805,"type":"business"}
{"business_id":"th9bibP0nXAw4zFqjKKaDg","full_address":"12851 W Bell Rd\nSte 1\nSurprise, AZ 85374","open":true,"categories":["Pet Services","Pet Boarding\/Pet Sitting","Pets"],"city":"Surprise","review_count":3,"name":"Grand Pet Hotel","neighborhoods":[],"longitude":-112.3373424,"state":"AZ","stars":5.0,"latitude":33.6381341,"type":"business"}
{"business_id":"cof7qW-PD0M7Jykclg48oQ","full_address":"3737 N Scottsdale Rd\nScottsdale, AZ 85251","open":false,"categories":["Health Markets","Food","Restaurants","Sandwiches","Specialty Food"],"city":"Scottsdale","review_count":6,"name":"Port of Subs and Smoothie King","neighborhoods":[],"longitude":-111.9258402,"state":"AZ","stars":3.5,"latitude":33.4916179,"type":"business"}
{"business_id":"3E5XcajSQBNW4I6f_EkGHg","full_address":"10260 North 90th St\nScottsdale, AZ 85258","open":true,"categories":["Oral Surgeons","Health & Medical","Dentists","Orthodontists","General Dentistry"],"city":"Scottsdale","review_count":3,"name":"Scottsdale Modern Dentistry and Orthodontics","neighborhoods":[],"longitude":-111.886595,"state":"AZ","stars":5.0,"latitude":33.5794148,"type":"business"}
{"business_id":"ApUCpJ9aa6yVgsde16gYrg","full_address":"3450 W Chandler Blvd\nSte 9\nChandler, AZ 85226","open":true,"categories":["Thai","Restaurants"],"city":"Chandler","review_count":72,"name":"Thai Cafe","neighborhoods":[],"longitude":-111.902866,"state":"AZ","stars":3.5,"latitude":33.3056789,"type":"business"}
{"business_id":"qR83gr56v7IjWEyfxAkg7A","full_address":"Saguaro Lake Marina\nSaguaro Lake, AZ","open":true,"categories":["Food"],"city":"Saguaro Lake","review_count":5,"name":"Lakeshore Restaurant","neighborhoods":[],"longitude":-111.5244723,"state":"AZ","stars":3.0,"latitude":33.5703101,"type":"business"}
{"business_id":"Qd0fyF-wB_1bQwSB34ggkw","full_address":"1515 N 7th Ave\nSte 100\nPhoenix, AZ 85003","open":true,"categories":["Sushi Bars","Japanese","Vegan","Restaurants"],"city":"Phoenix","review_count":77,"name":"How Do You Roll?","neighborhoods":[],"longitude":-112.0772,"state":"AZ","stars":4.0,"latitude":33.449188,"type":"business"}
{"business_id":"bsEJKduEgoBhNNNHO4ZHEw","full_address":"4410 N 40th St\nPhoenix, AZ 85018","open":true,"categories":["Bakeries","Food"],"city":"Phoenix","review_count":33,"name":"Tammie Coe Cakes & MJ Bread","neighborhoods":[],"longitude":-111.9955012,"state":"AZ","stars":4.0,"latitude":33.5024095,"type":"business"}
{"business_id":"wwBzSIjLdQl99_f4ToFLMA","full_address":"4700 N. Central Ave\nSte 102\nPhoenix, AZ 85016","open":false,"categories":["Shopping","Home & Garden","Furniture Stores"],"city":"Phoenix","review_count":12,"name":"Haus","neighborhoods":[],"longitude":-112.031029,"state":"AZ","stars":4.5,"latitude":33.50741,"type":"business"}
{"business_id":"aTS1TP1cNMgtlaKd7UsnqA","full_address":"3666 N Miller Rd\nSte 109\nScottsdale, AZ 85251","open":true,"categories":["Pediatric Dentists","Health & Medical","Dentists","General Dentistry"],"city":"Scottsdale","review_count":3,"name":"Four Peaks Family Dentistry","neighborhoods":[],"longitude":-111.917904,"state":"AZ","stars":2.5,"latitude":33.4909729,"type":"business"}
{"business_id":"DxUn-ukNL27GOuwjnFGFKA","full_address":"9393 N 90th St\nSte 116\nScottsdale, AZ 85258","open":true,"categories":["Sushi Bars","Japanese","Restaurants"],"city":"Scottsdale","review_count":185,"name":"Hiro Sushi","neighborhoods":[],"longitude":-111.886606,"state":"AZ","stars":4.5,"latitude":33.5705669,"type":"business"}
{"business_id":"xjY7ugA7d4I9moXET4oJSg","full_address":"2827 N 15th Ave\nPhoenix, AZ 85007","open":true,"categories":["Women's Clothing","Fashion","Shopping","Accessories"],"city":"Phoenix","review_count":5,"name":"Purple Lizard Boutique","neighborhoods":[],"longitude":-112.0913839,"state":"AZ","stars":4.0,"latitude":33.4797996,"type":"business"}
{"business_id":"tC_T3DykMOlLV4p7iiRDWw","full_address":"7051 N 7th St\nPhoenix, AZ 85020","open":true,"categories":["Dive Bars","Bars","Nightlife"],"city":"Phoenix","review_count":11,"name":"Dizzy's","neighborhoods":[],"longitude":-112.0547103882,"state":"AZ","stars":4.0,"latitude":33.5602788352,"type":"business"}
{"business_id":"65SwPmA-SY73nMKGDCEwxw","full_address":"940 N Alma School Rd\nSte 112\nChandler, AZ 85224","open":true,"categories":["Keys & Locksmiths","Home Services"],"city":"Chandler","review_count":5,"name":"A-Professional Locks","neighborhoods":[],"longitude":-111.8588066,"state":"AZ","stars":5.0,"latitude":33.3211614,"type":"business"}
{"business_id":"1xGhmD8-UjoRbGcBqkc6cA","full_address":"444 N Pinal Pkwy\nFlorence, AZ 85232","open":true,"categories":["Greek","Restaurants"],"city":"Florence","review_count":15,"name":"Mount Athos Restaurant and Cafe","neighborhoods":[],"longitude":-111.386046,"state":"AZ","stars":4.0,"latitude":33.034868,"type":"business"}
{"business_id":"SbieCdRBz33V_Hl0sU8HFg","full_address":"3218 E McDowell Rd\nPhoenix, AZ 85008","open":true,"categories":[],"city":"Phoenix","review_count":4,"name":"Filiberto's Mexican Rest","neighborhoods":[],"longitude":-112.012448,"state":"AZ","stars":3.5,"latitude":33.465883,"type":"business"}
{"business_id":"U0uzHoDoh-4p-7SrFr8LTg","full_address":"85013 Central Ave\nPhoenix, AZ 85013","open":true,"categories":["Local Flavor"],"city":"Phoenix","review_count":25,"name":"Winter in Phoenix","neighborhoods":[],"longitude":-112.0738399,"state":"AZ","stars":4.5,"latitude":33.5092902,"type":"business"}
{"business_id":"KG3GwIcMKf0qYAtA-hN1MA","full_address":"7000 E Shea Blvd\nSte 1580\nScottsdale, AZ 85254","open":false,"categories":["Burmese","Restaurants"],"city":"Scottsdale","review_count":30,"name":"Little Rangoon Taste of Burma","neighborhoods":[],"longitude":-111.9301931,"state":"AZ","stars":4.5,"latitude":33.5825532,"type":"business"}
{"business_id":"b3mfNkad2uxdlKLrS3hDCg","full_address":"4810 E McKellips Rd\nMesa, AZ 85215","open":true,"categories":["Food","Beer, Wine & Spirits","Bars","Nightlife"],"city":"Mesa","review_count":32,"name":"The Monastery","neighborhoods":[],"longitude":-111.7274256,"state":"AZ","stars":3.5,"latitude":33.4518379,"type":"business"}
{"business_id":"-A5CFmkgdMEggaihtyxX4Q","full_address":"901 N 4th St\nPhoenix, AZ 85004","open":false,"categories":["Bars","Nightlife","Dance Clubs"],"city":"Phoenix","review_count":12,"name":"nextDOOR","neighborhoods":[],"longitude":-112.068359,"state":"AZ","stars":3.5,"latitude":33.457863,"type":"business"}
{"business_id":"JnCtEM8rrPcg6ME_ivcLBA","full_address":"4008 N. 24th St\nPhoenix, AZ 85016","open":true,"categories":["Barbers","Beauty & Spas"],"city":"Phoenix","review_count":6,"name":"Bel View Barber Shop","neighborhoods":[],"longitude":-112.0302194,"state":"AZ","stars":5.0,"latitude":33.4932811,"type":"business"}
{"business_id":"cKxXBvOithS-Ic5KnhEKrg","full_address":"1060 North 54th Street\nChandler, AZ 85226","open":true,"categories":["Seafood","Restaurants","Italian"],"city":"Chandler","review_count":38,"name":"Carrabba's Italian Grill","neighborhoods":[],"longitude":-111.9686247,"state":"AZ","stars":3.5,"latitude":33.3208915,"type":"business"}
{"business_id":"_yUeZBoHERR8A-8wGlQ56Q","full_address":"3145 S Alma School Rd\nChandler, AZ 85248","open":true,"categories":["Shopping","Drugstores"],"city":"Chandler","review_count":6,"name":"Albertsons-Osco","neighborhoods":[],"longitude":-111.857424,"state":"AZ","stars":3.0,"latitude":33.260653,"type":"business"}
{"business_id":"Hw3GaaJ6dxpYP7jy7s0UuQ","full_address":"7333 E Scottsdale Mall\nScottsdale, AZ 85251","open":true,"categories":["Museums","Arts & Entertainment"],"city":"Scottsdale","review_count":5,"name":"Scottsdale Historical Museum","neighborhoods":[],"longitude":-111.9243082,"state":"AZ","stars":5.0,"latitude":33.492221,"type":"business"}
{"business_id":"hRa1QU3wvI5hRnkFm67YGA","full_address":"4722 E Ray Rd\nSte 16\nPhoenix, AZ 85044","open":true,"categories":["Barbers","Beauty & Spas"],"city":"Phoenix","review_count":4,"name":"Supercuts","neighborhoods":[],"longitude":-111.982554,"state":"AZ","stars":5.0,"latitude":33.321342,"type":"business"}
{"business_id":"8G4_ESDS6BOTVCAlNt6O8Q","full_address":"105 W Florence Blvd.\nCasa Grande, AZ 85222","open":false,"categories":["Restaurants","Pizza","Gluten-Free","Italian"],"city":"Casa Grande","review_count":19,"name":"Picazzo's Gourmet Pizza & Salads","neighborhoods":[],"longitude":-111.7523371,"state":"AZ","stars":4.0,"latitude":32.8794202,"type":"business"}
{"business_id":"XowUHY9sXrTizlnGwjzHGg","full_address":"4901 W Bell Rd\nSte 2\nSte 640\nGlendale, AZ 85308","open":true,"categories":["Health & Medical","Physical Therapy","Massage","Beauty & Spas"],"city":"Glendale","review_count":3,"name":"Custom Medical Massage","neighborhoods":[],"longitude":-112.165073,"state":"AZ","stars":4.5,"latitude":33.638658,"type":"business"}
{"business_id":"D_dR8uUXQ_8xuUDkmnisCQ","full_address":"Las Sendas Golf Club\n7555 E Eagle Crest Dr\nMesa, AZ 85207","open":true,"categories":["Seafood","Steakhouses","Restaurants"],"city":"Mesa","review_count":5,"name":"Bogey's Steak & Seafood","neighborhoods":[],"longitude":-111.6706386968,"state":"AZ","stars":3.5,"latitude":33.4908904485,"type":"business"}
{"business_id":"i0W4TZcoRbOYeRfDfQEX8g","full_address":"21705 North 19th Ave\nPhoenix, AZ 85027","open":true,"categories":["Delis","Italian","Restaurants"],"city":"Phoenix","review_count":25,"name":"Rinaldi's Italian Deli","neighborhoods":[],"longitude":-112.0997102,"state":"AZ","stars":3.5,"latitude":33.6696907,"type":"business"}
{"business_id":"Vb6BqKpCYENLwOEgV9wM0g","full_address":"6444 S McClintock Dr\nTempe, AZ 85283","open":true,"categories":["Children's Clothing","Fashion","Shopping"],"city":"Tempe","review_count":7,"name":"Love Child Resale","neighborhoods":[],"longitude":-111.9127085,"state":"AZ","stars":4.5,"latitude":33.3625565,"type":"business"}
{"business_id":"7wCysP5dwB0KdoPeHH2i2g","full_address":"7975 W Peoria Ave\nPeoria, AZ 85345","open":true,"categories":["Department Stores","Grocery","Fashion","Shopping","Food","Mobile Phones"],"city":"Peoria","review_count":3,"name":"Walmart","neighborhoods":[],"longitude":-112.230375,"state":"AZ","stars":2.5,"latitude":33.5811244,"type":"business"}
{"business_id":"bpdnJhDpayxT1m6feghsAA","full_address":"1545 N Scottsdale Rd\nTempe, AZ 85281","open":true,"categories":["Automotive","Gas & Service Stations"],"city":"Tempe","review_count":3,"name":"Quicktrip","neighborhoods":[],"longitude":-111.9259877,"state":"AZ","stars":4.0,"latitude":33.4470956,"type":"business"}
{"business_id":"5uvMoqO_XPMsNXzPoezp4w","full_address":"1121 S Wilbur\nMesa, AZ 85210","open":true,"categories":["Auto Repair","Automotive"],"city":"Mesa","review_count":3,"name":"German Motors of Mesa","neighborhoods":[],"longitude":-111.8241,"state":"AZ","stars":5.0,"latitude":33.394443,"type":"business"}
{"business_id":"L6PZFIpLARNTiDr5Owmc9Q","full_address":"10135 E Via Linda\nSte 117\nScottsdale, AZ 85258","open":false,"categories":["Food","Bakeries","Coffee & Tea"],"city":"Scottsdale","review_count":7,"name":"Tully's Coffee","neighborhoods":[],"longitude":-111.8619464,"state":"AZ","stars":4.0,"latitude":33.574721,"type":"business"}
{"business_id":"Ct2ioh5hZ83X2ycLSQoKbA","full_address":"3220 E Baseline Rd\nSte 134\nPhoenix, AZ 85073","open":false,"categories":["Tex-Mex","Restaurants"],"city":"Phoenix","review_count":3,"name":"Moe's Southwest Grill","neighborhoods":[],"longitude":-112.0739,"state":"AZ","stars":2.5,"latitude":33.4499,"type":"business"}
{"business_id":"-5EWgRkudDlcCbQSIL_twA","full_address":"408 E Roosevelt St\nPhoenix, AZ 85004","open":true,"categories":["Food","Arts & Entertainment","Street Vendors","Festivals"],"city":"Phoenix","review_count":12,"name":"Phoenix Food Truck Festival","neighborhoods":[],"longitude":-112.068175,"state":"AZ","stars":2.0,"latitude":33.459023,"type":"business"}
{"business_id":"Exx5ffvnmk4MrTyCkPRuug","full_address":"7328 E 2nd St\nScottsdale, AZ 85251","open":true,"categories":["Mexican","Restaurants"],"city":"Scottsdale","review_count":146,"name":"Los Olivos","neighborhoods":[],"longitude":-111.923427,"state":"AZ","stars":3.0,"latitude":33.491546,"type":"business"}
{"business_id":"rWXKA8HuYnJKcUAh_TZZag","full_address":"2010 E Rio Salado Pkwy\nTempe, AZ 85281","open":true,"categories":["Men's Clothing","Fashion","Shopping","Formal Wear"],"city":"Tempe","review_count":5,"name":"Men's Wearhouse   ","neighborhoods":[],"longitude":-111.9001317,"state":"AZ","stars":3.0,"latitude":33.4293477,"type":"business"}
{"business_id":"nBrD6TxddhHx4FhMk32JvQ","full_address":"10826 S 48th St\nPhoenix, AZ 85044","open":true,"categories":["Greek","Mediterranean","Restaurants"],"city":"Phoenix","review_count":79,"name":"Niro's Gyros","neighborhoods":[],"longitude":-111.9803928,"state":"AZ","stars":4.0,"latitude":33.3482841,"type":"business"}
{"business_id":"u6zEuzi4S0AtJBtKGZPxhQ","full_address":"5819 W Glendale Ave\nGlendale, AZ 85301","open":false,"categories":["American (Traditional)","Restaurants"],"city":"Glendale","review_count":19,"name":"ZiNG","neighborhoods":[],"longitude":-112.184609,"state":"AZ","stars":4.0,"latitude":33.538351,"type":"business"}
{"business_id":"NbjyUsShOLe1rA-nnin-bA","full_address":"1232 W Galveston St\nChandler, AZ 85224","open":true,"categories":["Photographers","Event Planning & Services"],"city":"Chandler","review_count":3,"name":"A & B Photos","neighborhoods":[],"longitude":-111.864595,"state":"AZ","stars":5.0,"latitude":33.313553,"type":"business"}
{"business_id":"8HmSt7fRFe-uH6i4yCmJQQ","full_address":"1470 N Dysart Rd\nGoodyear, AZ 85338","open":true,"categories":["Fast Food","Restaurants"],"city":"Goodyear","review_count":3,"name":"KFC","neighborhoods":[],"longitude":-112.3411836,"state":"AZ","stars":1.0,"latitude":33.4517561,"type":"business"}
{"business_id":"ZCMEPB97LvC2jV7hIQRnDw","full_address":"1605 N 7th Ave\nPhoenix, AZ 85007","open":true,"categories":["Fashion","Shopping","Beauty & Spas","Accessories","Tanning","Women's Clothing"],"city":"Phoenix","review_count":8,"name":"Boutique Solie","neighborhoods":[],"longitude":-112.0826274,"state":"AZ","stars":5.0,"latitude":33.4660253,"type":"business"}
{"business_id":"iV7D7fHKb-bF9fCL_bEMtA","full_address":"4991 S Alma School Rd\nSte 101\nChandler, AZ 85248","open":true,"categories":["American (New)","Restaurants"],"city":"Chandler","review_count":115,"name":"Cork Restaurant","neighborhoods":[],"longitude":-111.87918,"state":"AZ","stars":4.0,"latitude":33.2475,"type":"business"}
{"business_id":"ky6G0NMJZg96mfXpgDiopQ","full_address":"1805 N 91st Ave\nSte 103\nPhoenix, AZ 85037","open":true,"categories":["Hair Salons","Beauty & Spas"],"city":"Phoenix","review_count":3,"name":"Perfect Look Hair Braiding","neighborhoods":[],"longitude":-112.254727,"state":"AZ","stars":4.5,"latitude":33.466709,"type":"business"}
{"business_id":"bF7KQ6AQK5rBS7aOFKtlWg","full_address":"3330 S Price Rd\nSte 101\nTempe, AZ 85282","open":true,"categories":["Delis","Restaurants"],"city":"Tempe","review_count":44,"name":"Dilly's Deli","neighborhoods":[],"longitude":-111.8920275,"state":"AZ","stars":4.5,"latitude":33.3919202,"type":"business"}
{"business_id":"6rTpGUMFopKHgOewhm5Mww","full_address":"1535 E Old West Hwy\nApache Junction, AZ 85219","open":true,"categories":[],"city":"Apache Junction","review_count":3,"name":"Sundance Restaurant & Gift Shop","neighborhoods":[],"longitude":-111.5293534,"state":"AZ","stars":2.5,"latitude":33.402553,"type":"business"}
{"business_id":"IsTAWWa6f-YNp6gvTigi7A","full_address":"11827 N Panorama Dr\nFountain Hills, AZ 85268","open":true,"categories":["Auto Repair","Automotive"],"city":"Fountain Hills","review_count":3,"name":"Mikes Automotive","neighborhoods":[],"longitude":-111.7121936,"state":"AZ","stars":4.5,"latitude":33.5949062,"type":"business"}
{"business_id":"w43fQnuFAJVX9AsS06vwXA","full_address":"5959 W Thunderbird Rd\nGlendale, AZ 85306","open":true,"categories":["Bakeries","Food","American (Traditional)","Restaurants"],"city":"Glendale","review_count":9,"name":"Village Inn Restaurants","neighborhoods":[],"longitude":-112.186983,"state":"AZ","stars":3.5,"latitude":33.610444,"type":"business"}
{"business_id":"o3ehs4ZEdsizbJyB9_j7uQ","full_address":"6938 E 1st St\nScottsdale, AZ 85251","open":true,"categories":["Art Schools","Specialty Schools","Shopping","Jewelry","Accessories","Fashion","Education"],"city":"Scottsdale","review_count":14,"name":"Jam","neighborhoods":[],"longitude":-111.9312992,"state":"AZ","stars":5.0,"latitude":33.492195,"type":"business"}
{"business_id":"e0wJd1deF4Wl-etBC7nBgQ","full_address":"13213 W McDowell Road\nGoodyear, AZ 85338","open":true,"categories":["Tires","Automotive"],"city":"Goodyear","review_count":6,"name":"Discount Tire Company","neighborhoods":[],"longitude":-112.3432865,"state":"AZ","stars":3.0,"latitude":33.463982,"type":"business"}
{"business_id":"6kaVI16Xke6TC-292hk48w","full_address":"8399 E Indian School Rd\nSte 103\nScottsdale, AZ 85251","open":true,"categories":["Financial Services","Insurance"],"city":"Scottsdale","review_count":3,"name":"Misty Everette - Allstate","neighborhoods":[],"longitude":-111.9007826,"state":"AZ","stars":5.0,"latitude":33.4946439,"type":"business"}
{"business_id":"gpWKMzz5Cqy8k5iVVCq5Qw","full_address":"10701 N Scottsdale Road\n# 103\nScottsdale, AZ 85254","open":true,"categories":["Shopping","Pet Stores","Home & Garden","Pets"],"city":"Scottsdale","review_count":4,"name":"Pet & Pond Center","neighborhoods":[],"longitude":-111.9263508,"state":"AZ","stars":4.5,"latitude":33.5834379,"type":"business"}
{"business_id":"1qw1cml6wPSza3v_PIse1Q","full_address":"3033 N Scottsdale Rd\nScottsdale, AZ 85251","open":true,"categories":["Movers","Local Services","Home Services","Self Storage"],"city":"Scottsdale","review_count":6,"name":"U-Haul Company","neighborhoods":[],"longitude":-111.9256775,"state":"AZ","stars":3.5,"latitude":33.4828552,"type":"business"}
{"business_id":"IW6qDLuZuUc-xmw8PyJsOQ","full_address":"1957 W Dunlap Ave\nPhoenix, AZ 85021","open":false,"categories":["Seafood","Mexican","Restaurants"],"city":"Phoenix","review_count":3,"name":"Mariscos Ensenada Num 6","neighborhoods":[],"longitude":-112.1025316,"state":"AZ","stars":2.5,"latitude":33.5674315,"type":"business"}
{"business_id":"r7GXuj4rr2vGPU_pklxcQg","full_address":"7380 E 2nd St\nScottsdale, AZ 85251","open":true,"categories":["Arts & Entertainment","Festivals"],"city":"Scottsdale","review_count":28,"name":"Scottsdale Culinary Festival","neighborhoods":[],"longitude":-111.9224055,"state":"AZ","stars":2.5,"latitude":33.4918198,"type":"business"}
{"business_id":"eVdqpsCymmHtna_lqnTkiw","full_address":"1949 E Camelback Rd\nPhoenix, AZ 85073","open":true,"categories":["Pet Services","Pets","Pet Stores"],"city":"Phoenix","review_count":13,"name":"PetSmart","neighborhoods":[],"longitude":-112.040116,"state":"AZ","stars":3.5,"latitude":33.507557,"type":"business"}
{"business_id":"XuuSrEDYr2sQwd9d6LqdQA","full_address":"14010 N Litchfield Rd\nSurprise, AZ 85379","open":true,"categories":["Local Services","Dry Cleaning & Laundry"],"city":"Surprise","review_count":4,"name":"Premier $2.25 Cleaners","neighborhoods":[],"longitude":-112.3592286,"state":"AZ","stars":4.0,"latitude":33.6112827,"type":"business"}
{"business_id":"IIbdmP2RwBwttQf36cf44Q","full_address":"1703 E Larkspur Dr\nTempe, AZ 85281","open":true,"categories":["Departments of Motor Vehicles","Public Services & Government"],"city":"Tempe","review_count":17,"name":"Motor Vehicle Division","neighborhoods":[],"longitude":-111.911877,"state":"AZ","stars":3.5,"latitude":33.449238,"type":"business"}
{"business_id":"ihjMyJCgk4XxHmVYyxflhQ","full_address":"12875 W Bell Road\nSurprise, AZ 85374","open":true,"categories":["Tires","Automotive"],"city":"Surprise","review_count":4,"name":"Goodyear Auto Service Centers","neighborhoods":[],"longitude":-112.3554635,"state":"AZ","stars":1.5,"latitude":33.6385838,"type":"business"}
{"business_id":"OC9wyManFWVDMd89yooYvg","full_address":"10215 N 28th Drive Suite A1\nPhoenix, AZ 85051","open":false,"categories":["Hobby Shops","Comic Books","Shopping","Books, Mags, Music & Video"],"city":"Phoenix","review_count":6,"name":"Atomic Comics","neighborhoods":[],"longitude":-112.1212,"state":"AZ","stars":2.5,"latitude":33.5787125,"type":"business"}
{"business_id":"eovEq5kDSdf0WF_P_bD2Uw","full_address":"333 E Osborn Road\nPhoenix, AZ 85012","open":true,"categories":["Doctors","Health & Medical"],"city":"Phoenix","review_count":4,"name":"Central Phoenix Women's Health Care Ltd MD","neighborhoods":[],"longitude":-112.0673328,"state":"AZ","stars":3.5,"latitude":33.4874196,"type":"business"}
{"business_id":"LTqA_NSvhLDmmKCar9R_MQ","full_address":"1731 W Rose Garden Ln\nSte 5\nPhoenix, AZ 85027","open":true,"categories":["Automotive"],"city":"Phoenix","review_count":3,"name":"A Tint of Excellence","neighborhoods":[],"longitude":-112.0971866,"state":"AZ","stars":3.5,"latitude":33.6764879,"type":"business"}
{"business_id":"yeuy070bBkc4CD71M1VZIA","full_address":"Desert Botanical Gardens\n1201 N Galvin Pkwy\nPhoenix, AZ 85008","open":true,"categories":["Local Flavor"],"city":"Phoenix","review_count":14,"name":"Luminarias","neighborhoods":[],"longitude":-111.9477777,"state":"AZ","stars":4.0,"latitude":33.4606143,"type":"business"}
{"business_id":"KRddafPBRIBcI9uLFcOnHA","full_address":"625 E McKellips Rd\nSte 4\nMesa, AZ 85203","open":true,"categories":["Auto Repair","Automotive"],"city":"Mesa","review_count":3,"name":"Bowers Automotive","neighborhoods":[],"longitude":-111.8173681,"state":"AZ","stars":5.0,"latitude":33.4512801,"type":"business"}
{"business_id":"OkO7zRnvV2NQR5aPmbRZeA","full_address":"2000 East Rio Salado Pkwy\nTempe, AZ 85281","open":true,"categories":["Food","Food Delivery Services","Delis","Sandwiches","Restaurants"],"city":"Tempe","review_count":15,"name":"Jimmy John's","neighborhoods":[],"longitude":-111.9043028,"state":"AZ","stars":4.0,"latitude":33.4329724,"type":"business"}
{"business_id":"LzreyGNkVTYw4JFuSxWstA","full_address":"961 W Ray Rd\nChandler, AZ 85225","open":true,"categories":["Middle Eastern","Restaurants"],"city":"Chandler","review_count":9,"name":"Jerusalem","neighborhoods":[],"longitude":-111.8581712,"state":"AZ","stars":3.0,"latitude":33.3205562,"type":"business"}
{"business_id":"KCKq8rwYSaVFHP8w694TAQ","full_address":"23623 N Scottsdale Rd\nScottsdale, AZ 85255","open":true,"categories":["Hardware Stores","Shopping","Home & Garden"],"city":"Scottsdale","review_count":5,"name":"Pinnacle Peak Ace Hardware & Paint","neighborhoods":[],"longitude":-111.9252984,"state":"AZ","stars":3.5,"latitude":33.7019056,"type":"business"}
{"business_id":"HwXHXTA8Q7zUYkLMh5b96A","full_address":"3056 N 68th St\nScottsdale, AZ 85251","open":true,"categories":["Dive Bars","Bars","Nightlife"],"city":"Scottsdale","review_count":3,"name":"Closing Soon Saloon","neighborhoods":[],"longitude":-111.9347479,"state":"AZ","stars":3.5,"latitude":33.4829096,"type":"business"}
{"business_id":"zj2Olhf6zQGvm3DtCaEXew","full_address":"705 S. Rural Road\nSuite 101\nTempe, AZ 85281","open":true,"categories":["American (Traditional)","Restaurants"],"city":"Tempe","review_count":51,"name":"Buffalo Wild Wings","neighborhoods":[],"longitude":-111.9262026,"state":"AZ","stars":3.0,"latitude":33.4230344,"type":"business"}
{"business_id":"Ea7Jl7tw0y60YuZ4SjGiPQ","full_address":"2730 S Val Vista Dr\nBldg 7, Ste 137\nGilbert, AZ 85295","open":true,"categories":["Beauty & Spas","Health & Medical","Massage","Medical Spas"],"city":"Gilbert","review_count":4,"name":"Alli Total Body Wellness and Aesthetics Center","neighborhoods":[],"longitude":-111.7581975,"state":"AZ","stars":3.0,"latitude":33.3015901,"type":"business"}
{"business_id":"k6Si433-EJrY4J7SZxsnjA","full_address":"6952 E Main St\nScottsdale, AZ 85251","open":true,"categories":["Restaurants","Pizza","Italian"],"city":"Scottsdale","review_count":132,"name":"Grazie Pizzeria & Wine Bar","neighborhoods":[],"longitude":-111.9310456,"state":"AZ","stars":4.0,"latitude":33.4931627,"type":"business"}
{"business_id":"EFFIduf9WaUNbDy_O7yQjA","full_address":"5845 W Bell Rd\nGlendale, AZ 85308","open":true,"categories":["Beauty & Spas","Nail Salons"],"city":"Glendale","review_count":3,"name":"Regal Nails","neighborhoods":[],"longitude":-112.184995,"state":"AZ","stars":2.0,"latitude":33.637034,"type":"business"}
{"business_id":"fcxDkH9W0bNrcw8ElgO69w","full_address":"9492 W. Northern Ave.\nGlendale, AZ 85345","open":true,"categories":["Auto Repair","Automotive"],"city":"Glendale","review_count":3,"name":"Just Brakes","neighborhoods":[],"longitude":-112.2623,"state":"AZ","stars":3.5,"latitude":33.55256,"type":"business"}
{"business_id":"KbGpMcBhlx4Cy9ccf9YjCw","full_address":"1920 W Chandler Blv\nChandler, AZ 85224","open":true,"categories":["Chinese","Restaurants"],"city":"Chandler","review_count":3,"name":"Rice Garden","neighborhoods":[],"longitude":-111.875936,"state":"AZ","stars":3.0,"latitude":33.306407,"type":"business"}
{"business_id":"iHmfkYeEsIxbAqEj3dloQQ","full_address":"42323 N Vision Way\nSte 106\nAnthem, AZ 85086","open":true,"categories":["Arts & Crafts","Hobby Shops","Shopping","Art Supplies"],"city":"Anthem","review_count":4,"name":"Scrapbooks To Remember","neighborhoods":[],"longitude":-112.150449,"state":"AZ","stars":3.0,"latitude":33.868913,"type":"business"}
{"business_id":"EDCYXRV3Qs6bqf_rBEKhBQ","full_address":"4515 S McClintock Dr\nSte 120\nTempe, AZ 85282","open":true,"categories":["Health & Medical","Chiropractors"],"city":"Tempe","review_count":4,"name":"Triad Pain Management Clinic","neighborhoods":[],"longitude":-111.9088668,"state":"AZ","stars":3.0,"latitude":33.3848019,"type":"business"}
{"business_id":"M42zwm3xFkG6qnZsnTtt2Q","full_address":"1229 S Power Rd\nSte 102\nMesa, AZ 85206","open":false,"categories":["Asian Fusion","Restaurants"],"city":"Mesa","review_count":8,"name":"Chopstix","neighborhoods":[],"longitude":-111.6842135,"state":"AZ","stars":4.0,"latitude":33.393062,"type":"business"}
{"business_id":"4b9ykDXLI2nyBUUiNt0V7Q","full_address":"25311 N Lake Pleasant Pkwy\nPeoria, AZ 85383","open":true,"categories":[],"city":"Peoria","review_count":4,"name":"Lowe's Home Improvement Warehouse of N Peoria","neighborhoods":[],"longitude":-112.272229,"state":"AZ","stars":4.5,"latitude":33.709535,"type":"business"}
{"business_id":"qw93CjlAZ6a4ff11Z-hF3Q","full_address":"308 N 2nd Ave\nPhoenix, AZ 85003","open":true,"categories":["Arts & Entertainment","Nightlife","Music Venues"],"city":"Phoenix","review_count":145,"name":"Crescent Ballroom","neighborhoods":[],"longitude":-112.0764371,"state":"AZ","stars":4.5,"latitude":33.4517161,"type":"business"}
{"business_id":"xSGUgOwpTnnW31bTZb4tMw","full_address":"32633 N Scottsdale Rd\nScottsdale, AZ 85262","open":true,"categories":["Museums","Arts & Entertainment"],"city":"Scottsdale","review_count":3,"name":"The Heard Museum North Scottsdale","neighborhoods":[],"longitude":-111.9257751,"state":"AZ","stars":3.0,"latitude":33.7816141,"type":"business"}
{"business_id":"rp7X0MYQEQ4BtudkSOq7gw","full_address":"2700 W Baseline Rd\nTempe, AZ 85283","open":true,"categories":["Fast Food","Sandwiches","Restaurants"],"city":"Tempe","review_count":5,"name":"Subway","neighborhoods":[],"longitude":-111.977079,"state":"AZ","stars":3.5,"latitude":33.3791269,"type":"business"}
{"business_id":"KDaBJjNcj4JUbbF-CXTJ4g","full_address":"1701 E Thomas Rd\nSte. A104\nPhoenix, AZ 85016","open":true,"categories":["Health & Medical","Urgent Care"],"city":"Phoenix","review_count":5,"name":"NextCare Urgent Care","neighborhoods":[],"longitude":-112.0453681,"state":"AZ","stars":3.5,"latitude":33.4799198,"type":"business"}
{"business_id":"4jyN9UwyvDzL5CwUTaeF4w","full_address":"Tempe Beach Park, Tempe Town Lake\nPhoenix, AZ 85073","open":true,"categories":["Local Flavor"],"city":"Phoenix","review_count":8,"name":"Arizona Aloha Festivals","neighborhoods":[],"longitude":-111.9543618339,"state":"AZ","stars":5.0,"latitude":33.4320855193,"type":"business"}
{"business_id":"TrUlUCfoa1L034YKEermnQ","full_address":"1520 W Bell Rd\nPhoenix, AZ 85023","open":true,"categories":["Fast Food","Sandwiches","Restaurants"],"city":"Phoenix","review_count":3,"name":"Schlotzsky's","neighborhoods":[],"longitude":-112.091858,"state":"AZ","stars":4.0,"latitude":33.640396,"type":"business"}
{"business_id":"0SQmfh7ppX3HnYx9SxmReA","full_address":"921 N Dodson Rd\nMesa, AZ 85201","open":true,"categories":["Fast Food","Restaurants"],"city":"Mesa","review_count":7,"name":"Panda Express","neighborhoods":[],"longitude":-111.8314724,"state":"AZ","stars":3.0,"latitude":33.4151843,"type":"business"}
{"business_id":"iqkZLHs4pBeTTFG3NJ47Fg","full_address":"1106 N Arizona Ave\nChandler, AZ 85225","open":true,"categories":["Thrift Stores","Shopping"],"city":"Chandler","review_count":4,"name":"Savers","neighborhoods":[],"longitude":-111.8417195,"state":"AZ","stars":3.0,"latitude":33.3230623,"type":"business"}
{"business_id":"NfRddf3O8FV4ZWY_VTtR2A","full_address":"7014 E Camelback Rd\nSte 552\nScottsdale, AZ 85251","open":false,"categories":["Electronics","Shopping"],"city":"Scottsdale","review_count":4,"name":"Sony Style","neighborhoods":[],"longitude":-111.9296765,"state":"AZ","stars":1.5,"latitude":33.5025941,"type":"business"}
{"business_id":"FnX5RbZA0Pv546dMOUDAUQ","full_address":"14 E Pierce St\nPhoenix, AZ 85004","open":true,"categories":["Food","Coffee & Tea"],"city":"Phoenix","review_count":44,"name":"Royal At The Market","neighborhoods":[],"longitude":-112.0737079,"state":"AZ","stars":4.5,"latitude":33.4563262,"type":"business"}
{"business_id":"I4pSBXlKdR6assqRdVjtMg","full_address":"9025 N 43rd Ave\nPhoenix, AZ 85051","open":true,"categories":["Burgers","Restaurants"],"city":"Phoenix","review_count":10,"name":"Shorty' Sliders & Steak Burgers","neighborhoods":[],"longitude":-112.1513020992,"state":"AZ","stars":3.0,"latitude":33.5685840576,"type":"business"}
{"business_id":"MGvu43HVvMe4CJ-B0521DA","full_address":"42 E Southern Ave\nTempe, AZ 85282","open":true,"categories":["Tires","Automotive"],"city":"Tempe","review_count":4,"name":"Purcell's Western States Tire","neighborhoods":[],"longitude":-111.9386618,"state":"AZ","stars":2.5,"latitude":33.3930818,"type":"business"}
{"business_id":"yFmBMNsuOIe2u5kh7NtA0g","full_address":"110 E Roosevelt St\nPhoenix, AZ 85004","open":true,"categories":["Jazz & Blues","Arts & Entertainment","Performing Arts","Nightlife"],"city":"Phoenix","review_count":5,"name":"The Nash","neighborhoods":[],"longitude":-112.0724791163,"state":"AZ","stars":4.5,"latitude":33.4587363993,"type":"business"}
{"business_id":"ZLKaWkiYClepNPIsO6SgdA","full_address":"2151 N 83rd Ave\nPhoenix, AZ 85035","open":true,"categories":["Food","Convenience Stores"],"city":"Phoenix","review_count":3,"name":"Quiktrip","neighborhoods":[],"longitude":-112.237276,"state":"AZ","stars":4.5,"latitude":33.471342,"type":"business"}
{"business_id":"iAHSnFQTfIci1ZDe_Kidtw","full_address":"7343 E Scottsdale Mall\nSte 1000\nScottsdale, AZ 85251","open":false,"categories":["Sushi Bars","Japanese","Restaurants"],"city":"Scottsdale","review_count":20,"name":"Pure Sushi South","neighborhoods":[],"longitude":-111.922982,"state":"AZ","stars":3.5,"latitude":33.492761,"type":"business"}
{"business_id":"kxPqFTcpsB5xa1vTR7C_Nw","full_address":"1269 N Promenade Pkwy,  #121\nCasa Grande, AZ 85222","open":false,"categories":["Japanese","Restaurants"],"city":"Casa Grande","review_count":4,"name":"Ah-So Sushi & Steak","neighborhoods":[],"longitude":-111.74778,"state":"AZ","stars":3.0,"latitude":32.87808,"type":"business"}
{"business_id":"amHIo_dgGfYk8tr8OhhJvg","full_address":"15688 N Pima Rd\nSte C1\nScottsdale, AZ 85260","open":false,"categories":["Sandwiches","Restaurants"],"city":"Scottsdale","review_count":5,"name":"Togo's Eatery","neighborhoods":[],"longitude":-111.8912231,"state":"AZ","stars":3.0,"latitude":33.6281017,"type":"business"}
{"business_id":"XWpkTxBLgRXxl7g2Hw62Qg","full_address":"1900 W Chandler Blvd\nSte 24\nChandler, AZ 85224","open":true,"categories":["Food","Gelato"],"city":"Chandler","review_count":67,"name":"Angel Sweet Gelato","neighborhoods":[],"longitude":-111.8748501,"state":"AZ","stars":4.5,"latitude":33.3060616,"type":"business"}
{"business_id":"X3hzaHGzv9WLg4EbZEEwXQ","full_address":"7000 E Mayo Blvd, Bldg. 15\nPhoenix, AZ 85054","open":true,"categories":["Sporting Goods","Shopping"],"city":"Phoenix","review_count":10,"name":"Sports Authority","neighborhoods":[],"longitude":-111.9300279,"state":"AZ","stars":3.0,"latitude":33.6556844,"type":"business"}
{"business_id":"obkBJENTOXC3YpS_VWiPyw","full_address":"2895 S Alma School Rd\nChandler, AZ 85248","open":true,"categories":["Mexican","Tex-Mex","Restaurants"],"city":"Chandler","review_count":15,"name":"Chipotle Mexican Grill","neighborhoods":[],"longitude":-111.87918,"state":"AZ","stars":4.5,"latitude":33.2475,"type":"business"}
{"business_id":"9Js571dTqs43mkGbjjbUfw","full_address":"13610 N Scottsdale Rd\nSte 26\nScottsdale, AZ 85254","open":true,"categories":["Beauty & Spas","Nail Salons"],"city":"Scottsdale","review_count":4,"name":"Scottsdale Nails","neighborhoods":[],"longitude":-111.9270586967,"state":"AZ","stars":4.0,"latitude":33.6103305007,"type":"business"}
{"business_id":"dvQxsFICv2HFMmQX8yI55w","full_address":"7448 W Glendale Ave\nGlendale, AZ 85303","open":true,"categories":["Thai","Restaurants"],"city":"Glendale","review_count":6,"name":"Sala Thai","neighborhoods":[],"longitude":-112.2180099487,"state":"AZ","stars":4.5,"latitude":33.5390281677,"type":"business"}
{"business_id":"FydUxPwn2p1pcGNacbIIdQ","full_address":"3303 S Lindsay Rd\nSte 127\nGilbert, AZ 85296","open":true,"categories":["Endodontists","Health & Medical","Dentists","Orthodontists"],"city":"Gilbert","review_count":6,"name":"Apex Endodontics","neighborhoods":[],"longitude":-111.772012,"state":"AZ","stars":3.5,"latitude":33.31081,"type":"business"}
{"business_id":"ajvIamc7FSXEE9ifM0GSRA","full_address":"1330 E. Apache Blvd\nTempe, AZ 85281","open":true,"categories":["Pizza","Restaurants"],"city":"Tempe","review_count":29,"name":"Big Jimmy's $5 Large Pizza","neighborhoods":[],"longitude":-111.9167809,"state":"AZ","stars":4.0,"latitude":33.4148812,"type":"business"}
{"business_id":"BWYQQPXmy90Vr1D_wahfmQ","full_address":"1533 N Dysart Rd\nAvondale, AZ 85323","open":true,"categories":["Department Stores","Fashion","Shopping"],"city":"Avondale","review_count":5,"name":"Dollar Tree","neighborhoods":[],"longitude":-112.3389425137,"state":"AZ","stars":2.0,"latitude":33.461492679,"type":"business"}
{"business_id":"y2lNrjv4lg5gvpYhtUmfpg","full_address":"1863 S Signal Butte Rd\nMesa, AZ 85209","open":true,"categories":["Food","Desserts"],"city":"Mesa","review_count":4,"name":"Village Inn","neighborhoods":[],"longitude":-111.6003234,"state":"AZ","stars":3.0,"latitude":33.3813585,"type":"business"}
{"business_id":"T8zl1TQ-QuoATtcWSjnxeg","full_address":"4640 E Elwood St\nPhoenix, AZ 85040","open":true,"categories":["Colleges & Universities","Education"],"city":"Phoenix","review_count":8,"name":"University of Phoenix","neighborhoods":[],"longitude":-111.979193,"state":"AZ","stars":2.5,"latitude":33.4130141,"type":"business"}
{"business_id":"k-x29qcFyaRmEIDfPpef0Q","full_address":"107 E Baseline Rd\nSte A-3\nTempe, AZ 85283","open":false,"categories":["Women's Clothing","Men's Clothing","Fashion","Shopping","Children's Clothing"],"city":"Tempe","review_count":20,"name":"Loveland","neighborhoods":[],"longitude":-111.9382251,"state":"AZ","stars":4.5,"latitude":33.378216,"type":"business"}
{"business_id":"rQEVIWkcIjnfIKUrqovUDA","full_address":"36457 N Cave Creek Rd\nCave Creek, AZ 85331","open":true,"categories":["Breakfast & Brunch","Restaurants"],"city":"Cave Creek","review_count":6,"name":"Wagon Wheel","neighborhoods":[],"longitude":-111.9543192,"state":"AZ","stars":3.5,"latitude":33.8166182,"type":"business"}
{"business_id":"BD9zrMRx_gH05OhJ-NcjMw","full_address":"27295 N 83rd Dr\nPeoria, AZ 85383","open":true,"categories":["Marketing","Professional Services"],"city":"Peoria","review_count":7,"name":"Creative Resources","neighborhoods":[],"longitude":-112.238411,"state":"AZ","stars":5.0,"latitude":33.731903,"type":"business"}
{"business_id":"7kAXbY8hjHhC-nZKR2Embg","full_address":"1125 E Rio Salado Pkwy\nTempe, AZ 85281","open":true,"categories":["Active Life","American (New)","Golf","Restaurants"],"city":"Tempe","review_count":17,"name":"ASU Karsten Golf Course","neighborhoods":[],"longitude":-111.922006,"state":"AZ","stars":4.0,"latitude":33.429263,"type":"business"}
{"business_id":"Hr9mH3tfLc2ULNww9Sslyg","full_address":"8403 S Hardy Dr.\nTempe, AZ 85281","open":true,"categories":["Active Life","Parks"],"city":"Tempe","review_count":3,"name":"Tempe Skate Park","neighborhoods":[],"longitude":-111.9543856,"state":"AZ","stars":3.0,"latitude":33.3411056,"type":"business"}
{"business_id":"FPvTpF43UZOIa-9QDx8_aw","full_address":"6525 E Southern Ave\nMesa, AZ 85206","open":true,"categories":["Women's Clothing","Department Stores","Fashion","Shopping","Baby Gear & Furniture"],"city":"Mesa","review_count":3,"name":"JCPenney","neighborhoods":[],"longitude":-111.6906492,"state":"AZ","stars":5.0,"latitude":33.3938664,"type":"business"}
{"business_id":"NP78q8e3zdUSBOvbl527ZQ","full_address":"16000 N Civic Center Plz\nSurprise, AZ 85374","open":true,"categories":["Cafes","Restaurants"],"city":"Surprise","review_count":3,"name":"Fat Freddy's Cafe","neighborhoods":[],"longitude":-112.3680195,"state":"AZ","stars":4.5,"latitude":33.629617,"type":"business"}
{"business_id":"UWrB5H3G-hhiHMy3iKV2ew","full_address":"5042 N Central Ave\nPhoenix, AZ 85012","open":true,"categories":["Sandwiches","Restaurants"],"city":"Phoenix","review_count":58,"name":"Cheese 'n Stuff","neighborhoods":[],"longitude":-112.0739972,"state":"AZ","stars":4.5,"latitude":33.5102512,"type":"business"}
{"business_id":"3zzj54L5Ya1777Nm7ewGVg","full_address":"845 N Dobson Rd\nMesa, AZ 85201","open":true,"categories":["Pet Services","Pet Groomers","Pet Training","Pet Stores","Pets"],"city":"Mesa","review_count":3,"name":"Petco","neighborhoods":[],"longitude":-111.873992,"state":"AZ","stars":3.0,"latitude":33.430392,"type":"business"}
{"business_id":"gnezwnCcfQLeu82hV6duHg","full_address":"7014 East Camelback Road\nSpace #2005\nScottsdale, AZ 85251","open":true,"categories":["Fashion","Shopping","Jewelry","Accessories"],"city":"Scottsdale ","review_count":16,"name":"Charming Charlie","neighborhoods":[],"longitude":-111.9296765,"state":"AZ","stars":4.0,"latitude":33.5025941,"type":"business"}
{"business_id":"dLBqf9QayF9eSUzz6BvmSQ","full_address":"2027 E Camelback Rd\nPhoenix, AZ 85016","open":true,"categories":["Used, Vintage & Consignment","Fashion","Shopping","Home & Garden","Furniture Stores"],"city":"Phoenix","review_count":6,"name":"My Sister's Attic","neighborhoods":[],"longitude":-112.0372641,"state":"AZ","stars":3.0,"latitude":33.5092825,"type":"business"}
{"business_id":"uJMwoQ0XGLr2Z4wxEFt-QQ","full_address":"4726 E Thomas Rd\nPhoenix, AZ 85018","open":true,"categories":["Health & Medical","Dentists","Orthodontists","General Dentistry","Cosmetic Dentists"],"city":"Phoenix","review_count":7,"name":"All Smiles Dental Care","neighborhoods":[],"longitude":-111.978851,"state":"AZ","stars":4.0,"latitude":33.480395,"type":"business"}
{"business_id":"9XHJoGESYEDzHwDWQ1518Q","full_address":"8977 N Scottsdale Rd\nScottsdale, AZ 85253","open":false,"categories":["Restaurants"],"city":"Scottsdale","review_count":16,"name":"Dish","neighborhoods":[],"longitude":-111.9259298,"state":"AZ","stars":3.5,"latitude":33.5673816,"type":"business"}
{"business_id":"c0zhbiffge6fGl_Nzgxbqw","full_address":"922 N 5th St\nPhoenix, AZ 85004","open":true,"categories":["Shopping","Home Decor","Arts & Crafts","Bookstores","Home & Garden","Event Planning & Services","Books, Mags, Music & Video","Cards & Stationery","Flowers & Gifts"],"city":"Phoenix","review_count":39,"name":"MADE Art Boutique","neighborhoods":[],"longitude":-112.0675746,"state":"AZ","stars":4.5,"latitude":33.4585263,"type":"business"}
{"business_id":"Ph-luLM88Kj6Hb1PIh_StQ","full_address":"1120 S Country Club Dr\nSte 105\nMesa, AZ 85210","open":false,"categories":["Hobby Shops","Comic Books","Books, Mags, Music & Video","Shopping","Toy Stores"],"city":"Mesa","review_count":7,"name":"Atomic Comics","neighborhoods":[],"longitude":-111.8417698,"state":"AZ","stars":3.5,"latitude":33.3949852,"type":"business"}
{"business_id":"1mhywrdsgdqJM3OGZIpVtA","full_address":"7295 E Stetson Dr\nScottsdale, AZ 85251","open":true,"categories":["Bars","Music Venues","Arts & Entertainment","Dance Clubs","Nightlife","Lounges"],"city":"Scottsdale","review_count":115,"name":"Martini Ranch","neighborhoods":[],"longitude":-111.9242412,"state":"AZ","stars":3.5,"latitude":33.4994444,"type":"business"}
{"business_id":"jQHHbkVn-N2i6hezPIxqfA","full_address":"1959 S Signal Butte Rd\nMesa, AZ 85209","open":true,"categories":["Food","Desserts","Ice Cream & Frozen Yogurt"],"city":"Mesa","review_count":6,"name":"Bahama Bucks","neighborhoods":[],"longitude":-111.6002804,"state":"AZ","stars":4.5,"latitude":33.3793261,"type":"business"}
{"business_id":"uHXqZo7LpAxRfR87qzLx0g","full_address":"1141 E Guadalupe Rd\nGilbert, AZ 85234","open":true,"categories":["Active Life","Gyms","Fitness & Instruction"],"city":"Gilbert","review_count":7,"name":"Freestone Recreation Center","neighborhoods":[],"longitude":-111.7654225,"state":"AZ","stars":4.5,"latitude":33.3644454,"type":"business"}
{"business_id":"l4ymgiD1WnsSrwxWWk7a3Q","full_address":"4803 E Ray Rd\nPhoenix, AZ 85044","open":true,"categories":["Food","Bagels","Delis","Restaurants"],"city":"Phoenix","review_count":10,"name":"Einstein Bros Bagels","neighborhoods":[],"longitude":-111.979961,"state":"AZ","stars":3.5,"latitude":33.3190981,"type":"business"}
{"business_id":"qjXtirU34PdTjPVbup8cTw","full_address":"3049 E Indian School Rd\nPhoenix, AZ 85016","open":true,"categories":["Active Life","Amusement Parks","Nightlife","Bowling"],"city":"Phoenix","review_count":20,"name":"AMF Squaw Peak Lanes","neighborhoods":[],"longitude":-112.0157071,"state":"AZ","stars":3.0,"latitude":33.4950209,"type":"business"}
{"business_id":"NMiisW8V2YEd759ppZCIaA","full_address":"4636 N 7th Ave\nPhoenix, AZ 85013","open":true,"categories":["Tattoo","Beauty & Spas"],"city":"Phoenix","review_count":4,"name":"Black Lantern Tattoo","neighborhoods":[],"longitude":-112.0824801,"state":"AZ","stars":5.0,"latitude":33.5050225,"type":"business"}
{"business_id":"A9d2rc3HfwExmzZ0EDGtEw","full_address":"451 N Old Litchfield Rd\nLitchfield Park, AZ 85340","open":true,"categories":["Active Life","Golf","Sporting Goods","Shopping","Golf Equipment"],"city":"Litchfield Park","review_count":4,"name":"Wigwam Resort & Golf Club","neighborhoods":[],"longitude":-112.3580699,"state":"AZ","stars":2.5,"latitude":33.4992666,"type":"business"}
{"business_id":"dP3bRr_N7Z8SkHNkZBXonw","full_address":"7000 E Mayo Blvd\nSte 1076\nPhoenix, AZ 85054","open":false,"categories":["Food","Ice Cream & Frozen Yogurt"],"city":"Phoenix","review_count":5,"name":"Sweet Life Gelateria","neighborhoods":[],"longitude":-111.9300279,"state":"AZ","stars":5.0,"latitude":33.6556844,"type":"business"}
{"business_id":"p06uRJ0HO4k9FXabVX45Pg","full_address":"1405 W Baseline Road\nTempe, AZ 85283","open":true,"categories":["Restaurants"],"city":"Tempe","review_count":6,"name":"Wendy's Old Fashioned Hamburgers","neighborhoods":[],"longitude":-111.9609788,"state":"AZ","stars":2.5,"latitude":33.3780956,"type":"business"}
{"business_id":"YhBFM3xy2G6DQC2VKXVkTA","full_address":"2916 S Price Rd\nTempe, AZ 85282","open":true,"categories":["Electricians","Lighting Fixtures & Equipment","Home Services","Home Theatre Installation"],"city":"Tempe","review_count":29,"name":"Good Guys Electric","neighborhoods":[],"longitude":-111.892204,"state":"AZ","stars":5.0,"latitude":33.397272,"type":"business"}
{"business_id":"mIendFH3mc2E4dW03rgvfQ","full_address":"5605 W Northern Ave\nGlendale, AZ 85301","open":true,"categories":["Department Stores","Grocery","Fashion","Shopping","Food","Mobile Phones"],"city":"Glendale","review_count":7,"name":"Walmart","neighborhoods":[],"longitude":-112.179707,"state":"AZ","stars":2.5,"latitude":33.551682,"type":"business"}
{"business_id":"ChmqODwuYP1ewjmWXtxtsg","full_address":"13843 N Tatum Boulevard\nSuite 15\nPhoenix, AZ 85032","open":true,"categories":["Chinese","Restaurants"],"city":"Phoenix","review_count":75,"name":"Nee House Chinese Resturant","neighborhoods":[],"longitude":-111.9778065,"state":"AZ","stars":3.5,"latitude":33.6128816,"type":"business"}
{"business_id":"AoCIswBSDMPvTsmvT3QJUA","full_address":"2501 W Happy Valley Rd\n# 50-1260\nPhoenix, AZ 85085","open":true,"categories":["Food","Ice Cream & Frozen Yogurt"],"city":"Phoenix","review_count":3,"name":"Cold Stone Creamery","neighborhoods":[],"longitude":-112.1142778,"state":"AZ","stars":3.5,"latitude":33.7110102,"type":"business"}
{"business_id":"wQXqj3GTHsF3AcWB3LTxMQ","full_address":"7670 S Priest Dr\nTempe, AZ 85284","open":true,"categories":["Barbeque","Restaurants"],"city":"Tempe","review_count":65,"name":"Honey Bear's BBQ","neighborhoods":[],"longitude":-111.9637082206,"state":"AZ","stars":3.0,"latitude":33.3481590509,"type":"business"}
{"business_id":"IAaKCOkZ4FVfyct4x-tUsQ","full_address":"1419 N Jackrabbit Trl\nBuckeye, AZ 85396","open":true,"categories":["Automotive","Gas & Service Stations"],"city":"Buckeye","review_count":3,"name":"Jackrabbit Chevron","neighborhoods":[],"longitude":-112.478171,"state":"AZ","stars":2.5,"latitude":33.463576,"type":"business"}
{"business_id":"1PM40DbmTVCNgENzZfs1kg","full_address":"758 S Watson Rd\nBuckeye, AZ 85326","open":true,"categories":["Mexican","Restaurants"],"city":"Buckeye","review_count":3,"name":"El Pollo Loco","neighborhoods":[],"longitude":-112.5564814,"state":"AZ","stars":4.5,"latitude":33.4393455,"type":"business"}
{"business_id":"yR6kgWuMUNG6fjOrzzhfeQ","full_address":"11111 N 7th St\nPhoenix, AZ 85020","open":true,"categories":["Hotels & Travel","Event Planning & Services","Hotels"],"city":"Phoenix","review_count":70,"name":"Pointe Hilton Tapatio Cliffs Resort","neighborhoods":[],"longitude":-112.065436542,"state":"AZ","stars":3.5,"latitude":33.5950968646,"type":"business"}
{"business_id":"wtIhjtQs_-3hFdMH0Bnmng","full_address":"2115 E Buckeye Road\nPhoenix, AZ 85034","open":true,"categories":["Hotels & Travel","Transportation"],"city":"Phoenix","review_count":3,"name":"Greyhound Bus Lines","neighborhoods":[],"longitude":-112.0359906,"state":"AZ","stars":1.0,"latitude":33.4367249,"type":"business"}
{"business_id":"2YGgBCYufNQQGvn7mzPqfw","full_address":"866 N Higley Rd\nGilbert, AZ 85234","open":true,"categories":["Veterinarians","Pets"],"city":"Gilbert","review_count":4,"name":"Higley Road Pet Clinic","neighborhoods":[],"longitude":-111.722534,"state":"AZ","stars":5.0,"latitude":33.366021,"type":"business"}
{"business_id":"Vf0tdlvXB0M7dR2Y2AeI8A","full_address":"6750 W Peoria Ave\nPeoria, AZ 85345","open":true,"categories":["Sandwiches","Restaurants"],"city":"Peoria","review_count":4,"name":"Gatti's New York Subs","neighborhoods":[],"longitude":-112.204254,"state":"AZ","stars":5.0,"latitude":33.582685,"type":"business"}
{"business_id":"nDHyino_t7O94ZzRHGUApw","full_address":"1836 S Val Vista Drive\nMesa, AZ 85204","open":true,"categories":["Grocery","Shopping","Florists","Food","Beer, Wine & Spirits","Flowers & Gifts","Restaurants"],"city":"Mesa","review_count":42,"name":"Aj's Fine Foods","neighborhoods":[],"longitude":-111.7542367,"state":"AZ","stars":4.0,"latitude":33.3824032,"type":"business"}
{"business_id":"42Ai9wcFPE2HZ_aADGXI9Q","full_address":"4412 N Central Ave\nPhoenix, AZ 85012","open":true,"categories":["Sporting Goods","Bikes","Shopping"],"city":"Phoenix","review_count":38,"name":"Slippery Pig Bicycles","neighborhoods":[],"longitude":-112.0740863,"state":"AZ","stars":4.0,"latitude":33.500805,"type":"business"}
{"business_id":"106JT5p8e8Chtd0CZpcARw","full_address":"1020 E Pecos Rd\nChandler, AZ 85225","open":false,"categories":["Food","Coffee & Tea"],"city":"Chandler","review_count":12,"name":"Arizona Coffee Connection","neighborhoods":[],"longitude":-111.8332,"state":"AZ","stars":4.5,"latitude":33.3181,"type":"business"}
{"business_id":"UksBiIoqV0sr4kcqBOE4nQ","full_address":"5713 W Glendale Ave\nGlendale, AZ 85301","open":true,"categories":["Burgers","Restaurants"],"city":"Glendale","review_count":17,"name":"Lenny's Burger Shop","neighborhoods":[],"longitude":-112.1819312,"state":"AZ","stars":3.5,"latitude":33.5384636,"type":"business"}
{"business_id":"aJtK7kfK2v7wfuD0a2UfOw","full_address":"5940 W Union Hills Dr\nGlendale, AZ 85308","open":true,"categories":["Food","Ice Cream & Frozen Yogurt"],"city":"Glendale","review_count":8,"name":"Desert Swirl Frozen Yogurt","neighborhoods":[],"longitude":-112.1888101,"state":"AZ","stars":3.5,"latitude":33.6546363,"type":"business"}
{"business_id":"0l9e2aBYZfogiSUyxJEL3Q","full_address":"5509 N 7th St\nPhoenix, AZ 85014","open":false,"categories":["Mexican","Restaurants"],"city":"Phoenix","review_count":4,"name":"Manuel's Mexican Restaurant & Cantina","neighborhoods":[],"longitude":-112.063844,"state":"AZ","stars":3.5,"latitude":33.517438,"type":"business"}
{"business_id":"4TEiMrW7OmpUgBXONg1tQw","full_address":"700 W Warner Rd\nChandler, AZ 85225","open":false,"categories":["Restaurants"],"city":"Chandler","review_count":3,"name":"Hometown Buffet","neighborhoods":[],"longitude":-111.854277,"state":"AZ","stars":2.5,"latitude":33.33563,"type":"business"}
{"business_id":"4fO13y8cHH5Loaae7rnExA","full_address":"18555 N 59th Avenue\nGlendale, AZ 85308","open":true,"categories":["Food","Coffee & Tea"],"city":"Glendale","review_count":8,"name":"Starbucks Coffee Company","neighborhoods":[],"longitude":-112.1862718,"state":"AZ","stars":3.5,"latitude":33.6538701,"type":"business"}
{"business_id":"b3zJrtYqVg4ZXmiLN8V84w","full_address":"18540 N Scottsdale Rd\nScottsdale, AZ 85054","open":true,"categories":["Shopping","Home & Garden","Furniture Stores"],"city":"Scottsdale","review_count":5,"name":"Paddy O' Furniture","neighborhoods":[],"longitude":-111.9253098,"state":"AZ","stars":4.0,"latitude":33.6535262,"type":"business"}
{"business_id":"5XMNlPmqFnXd1_s2y_67nA","full_address":"10400 E Via Linda\nScottsdale, AZ 85258","open":true,"categories":["Active Life","Tennis","Parks"],"city":"Scottsdale","review_count":4,"name":"Scottsdale Ranch Park & Tennis Center","neighborhoods":[],"longitude":-111.859399,"state":"AZ","stars":4.0,"latitude":33.5757,"type":"business"}
{"business_id":"lUhjcttOVyH9uNa0v6NFfw","full_address":"Chandler, AZ 85224","open":true,"categories":["Pizza","Restaurants"],"city":"Chandler","review_count":3,"name":"Pizza Factory","neighborhoods":[],"longitude":-111.8747445,"state":"AZ","stars":3.0,"latitude":33.3260297,"type":"business"}
{"business_id":"A9acBFCTT87z9pXngUwN8g","full_address":"1155 W Elliot Rd\nTempe, AZ 85284","open":false,"categories":["Active Life","Mini Golf","Arts & Entertainment","Amusement Parks","Arcades"],"city":"Tempe","review_count":17,"name":"Fiddlesticks Family Fun Park","neighborhoods":[],"longitude":-111.956354,"state":"AZ","stars":2.0,"latitude":33.34723,"type":"business"}
{"business_id":"m2N5lcfXv5I2TVcXcMTtOw","full_address":"817 W 5th Street\nTempe, AZ 85281","open":true,"categories":["Active Life","Parks"],"city":"Tempe","review_count":3,"name":"Jaycee Park","neighborhoods":[],"longitude":-111.948854,"state":"AZ","stars":2.5,"latitude":33.424858,"type":"business"}
{"business_id":"KV-yJLmlODfUG1Mkds6kYw","full_address":"Paradise Valley Mall\nTatum Blvd & Cactus Rd\nPhoenix, AZ 85032","open":true,"categories":["Food","Bakeries","Delis","Bagels","Restaurants"],"city":"Phoenix","review_count":115,"name":"Chompie's Restaurant & Bakery","neighborhoods":[],"longitude":-111.9811896777,"state":"AZ","stars":3.5,"latitude":33.6029318153,"type":"business"}
{"business_id":"-1-sUowC7fJ-cn7mCxvJ5w","full_address":"7121 E 5th Ave\nSte 1\nScottsdale, AZ 85251","open":true,"categories":["Shopping"],"city":"Scottsdale","review_count":3,"name":"The Angel Store & More...","neighborhoods":[],"longitude":-111.927413,"state":"AZ","stars":2.5,"latitude":33.497981,"type":"business"}
{"business_id":"dMXYzSsh7CnIX_6KixDW8A","full_address":"401 E Pima St\nGila Bend, AZ 85337","open":true,"categories":["Breakfast & Brunch","American (Traditional)","Diners","Restaurants"],"city":"Gila Bend","review_count":27,"name":"Space Age Restaurant","neighborhoods":[],"longitude":-112.7128951,"state":"AZ","stars":3.0,"latitude":32.9479262,"type":"business"}
{"business_id":"uNEyBobEVrXJG6rbS00QeQ","full_address":"1300 S Watson Road\nBuckeye, AZ 85326","open":false,"categories":["Restaurants"],"city":"Buckeye","review_count":3,"name":"Great China","neighborhoods":[],"longitude":-112.5563745,"state":"AZ","stars":1.0,"latitude":33.43401,"type":"business"}
{"business_id":"_lDDgqKSwzYKNiCqdGQLHw","full_address":"2501 W Happy Valley Road\nPhoenix, AZ 85085","open":true,"categories":["Food","Coffee & Tea"],"city":"Phoenix","review_count":11,"name":"Starbucks Coffee Company","neighborhoods":[],"longitude":-112.1122766,"state":"AZ","stars":3.5,"latitude":33.711091,"type":"business"}
{"business_id":"cuxqnMMmbBV0iE2KJJy60Q","full_address":"3202 E Greenway Road\nSuite 1289\nPhoenix, AZ 85032","open":true,"categories":["Restaurants"],"city":"Phoenix","review_count":4,"name":"A A Wok","neighborhoods":[],"longitude":-112.013151,"state":"AZ","stars":3.0,"latitude":33.6283281,"type":"business"}
{"business_id":"9du6Q4vCoQm2tHJDTmWaSg","full_address":"7135 E Camelback Rd\nSte 1145\nScottsdale, AZ 85251","open":true,"categories":["Optometrists","Health & Medical"],"city":"Scottsdale","review_count":3,"name":"Optica Eyewear","neighborhoods":[],"longitude":-111.9276185,"state":"AZ","stars":4.0,"latitude":33.5019817,"type":"business"}
{"business_id":"DXADDERHdunEdkwo9_t7gg","full_address":"1440 N Dysart Ave\nAvondale, AZ 85323","open":true,"categories":["Mexican","Restaurants"],"city":"Avondale","review_count":13,"name":"Filiberto's","neighborhoods":[],"longitude":-112.341186,"state":"AZ","stars":3.5,"latitude":33.4513293,"type":"business"}
{"business_id":"Wzm33GwGm_xosXZF6Jx1-w","full_address":"8050 E Indian School Rd\nScottsdale, AZ 85251","open":true,"categories":["Fast Food","Restaurants"],"city":"Scottsdale","review_count":7,"name":"KFC","neighborhoods":[],"longitude":-111.906939,"state":"AZ","stars":3.0,"latitude":33.495197,"type":"business"}
{"business_id":"lTgbj26dpv8Ltzbf83T6oQ","full_address":"17109 N Catherine Ct\nSurprise, AZ 85374","open":true,"categories":["Bakeries","Food"],"city":"Surprise","review_count":4,"name":"Cake Frenzy","neighborhoods":[],"longitude":-112.378155,"state":"AZ","stars":5.0,"latitude":33.639743,"type":"business"}
{"business_id":"TVJT7Xknd-ikf4vskcjKQw","full_address":"1065 W Queen Creek Rd\nChandler, AZ 85248","open":true,"categories":["Greek","Restaurants"],"city":"Chandler","review_count":38,"name":"Cyprus Grill","neighborhoods":[],"longitude":-111.8602742,"state":"AZ","stars":4.0,"latitude":33.2618144,"type":"business"}
{"business_id":"nRzZac3LVgANpKPkDs4LSQ","full_address":"18 E Camelback Rd\nSte 18\nPhoenix, AZ 85012","open":true,"categories":["Sandwiches","Restaurants"],"city":"Phoenix","review_count":12,"name":"Jersey Mike's Subs","neighborhoods":[],"longitude":-112.0732351,"state":"AZ","stars":4.0,"latitude":33.509301,"type":"business"}
{"business_id":"qdA4qiSXjaiuqO4SueH9VA","full_address":"450 N Alma School R\nMesa, AZ 85201","open":true,"categories":["Mexican","Restaurants"],"city":"Mesa","review_count":21,"name":"Burrito Express","neighborhoods":[],"longitude":-111.8564229,"state":"AZ","stars":3.5,"latitude":33.4234775,"type":"business"}
{"business_id":"7P9XY8EoBr-Ksoh3Xtq0Xg","full_address":"15643 N Reems Rd Ste 104\nSurprise, AZ 85374","open":true,"categories":["Beauty & Spas","Nail Salons"],"city":"Surprise","review_count":8,"name":"Wild Nail","neighborhoods":[],"longitude":-112.393742,"state":"AZ","stars":4.0,"latitude":33.626292,"type":"business"}
{"business_id":"14Ys8nYayXPpUouHsyTN1A","full_address":"3751 S Clubhouse Dr\nChandler, AZ 85248","open":true,"categories":["Active Life","Golf"],"city":"Chandler","review_count":3,"name":"Ocotillo Golf Resort","neighborhoods":[],"longitude":-111.870883,"state":"AZ","stars":2.5,"latitude":33.25107,"type":"business"}
{"business_id":"NlhHKKpS4xg9nOrWzkMJ-Q","full_address":"12251 N 32nd St\nSte 1\nPhoenix, AZ 85032","open":true,"categories":["Day Spas","Hair Removal","Beauty & Spas"],"city":"Phoenix","review_count":7,"name":"Spa Mom By Andrea","neighborhoods":[],"longitude":-112.0128624,"state":"AZ","stars":4.5,"latitude":33.5988106,"type":"business"}
{"business_id":"oSsLoOCxuvG2fvrQmqXYMg","full_address":"4280 E Indian School Rd\nSte 108\nPhoenix, AZ 85018","open":false,"categories":["Active Life","Dance Schools","Specialty Schools","Education","Fitness & Instruction"],"city":"Phoenix","review_count":6,"name":"Abby Bella Arcadia Dance Studio","neighborhoods":[],"longitude":-111.9891177,"state":"AZ","stars":4.5,"latitude":33.495074,"type":"business"}
{"business_id":"LEWwr5Qu2NKKv4t2BvtA6A","full_address":"1158 W Washington St\nTempe, AZ 85281","open":false,"categories":["Restaurants"],"city":"Tempe","review_count":6,"name":"Moe's Southwest Grill","neighborhoods":[],"longitude":-111.955643,"state":"AZ","stars":3.0,"latitude":33.442375,"type":"business"}
{"business_id":"IBNHRj-NLfA-FlKnWxZDQg","full_address":"3395 W Chandler Blvd\nChandler, AZ 85226","open":true,"categories":["Food","Food Delivery Services","Delis","Sandwiches","Restaurants"],"city":"Chandler","review_count":6,"name":"Jimmy John's","neighborhoods":[],"longitude":-111.8998074532,"state":"AZ","stars":4.0,"latitude":33.3050485515,"type":"business"}
{"business_id":"onto4zpPMd1fIfNLxzZcZA","full_address":"909 W Grove Pkwy\nTempe, AZ 85283","open":false,"categories":["Home Services","Real Estate","Apartments"],"city":"Tempe","review_count":5,"name":"Tempe Groves","neighborhoods":[],"longitude":-111.9534086,"state":"AZ","stars":3.0,"latitude":33.3546892,"type":"business"}
{"business_id":"gmgjDbUvS70LnTxcO_tggA","full_address":"3629 E Indian School Rd\nPhoenix, AZ 85018","open":true,"categories":["Children's Clothing","Fashion","Shopping","Jewelry","Baby Gear & Furniture"],"city":"Phoenix","review_count":3,"name":"Little Jewelz","neighborhoods":[],"longitude":-112.0030778,"state":"AZ","stars":3.5,"latitude":33.4951482,"type":"business"}
{"business_id":"r67TiLEb5K1nnacFCEQ0jQ","full_address":"13635 N 35th Ave\nPhoenix, AZ 85029","open":true,"categories":["Burgers","Restaurants"],"city":"Phoenix","review_count":6,"name":"Burger King","neighborhoods":[],"longitude":-112.1335065,"state":"AZ","stars":1.5,"latitude":33.609824,"type":"business"}
{"business_id":"Kh7cW1rcbxzsgTzAfqEcGw","full_address":"5035 E Elliot Rd\nPhoenix, AZ 85044","open":true,"categories":["Food","Delis","Bagels","Restaurants"],"city":"Phoenix","review_count":50,"name":"The Bagel Man","neighborhoods":[],"longitude":-111.9766013,"state":"AZ","stars":4.5,"latitude":33.3488775,"type":"business"}
{"business_id":"xI6_E9ERSDEmgMYw1TeSrw","full_address":"4206 N 7th Ave\nPhoenix, AZ 85013","open":true,"categories":["Women's Clothing","Fashion","Shopping"],"city":"Phoenix","review_count":4,"name":"Sirens and Saints","neighborhoods":[],"longitude":-112.083887,"state":"AZ","stars":3.5,"latitude":33.497003,"type":"business"}
{"business_id":"_TsQL0GYnStvozi_xOtV2w","full_address":"2404 E Bell Rd\nPhoenix, AZ 85032","open":true,"categories":["Electronics","Shopping"],"city":"Phoenix","review_count":8,"name":"Batteries Plus","neighborhoods":[],"longitude":-112.030411,"state":"AZ","stars":4.0,"latitude":33.64085,"type":"business"}
{"business_id":"NzmTnhKa17kZbuc-M0u41w","full_address":"1880 S Alma School Rd\nChandler, AZ 85248","open":true,"categories":["Italian","Pizza","Restaurants"],"city":"Chandler","review_count":17,"name":"Barro's Pizza","neighborhoods":[],"longitude":-111.8589415,"state":"AZ","stars":4.0,"latitude":33.2786539,"type":"business"}
{"business_id":"y75baZnoI51J8WS7NK9FHQ","full_address":"590 N Alma School Rd\nSte 35\nChandler, AZ 85224","open":true,"categories":["Restaurants","Pizza","Italian"],"city":"Chandler","review_count":110,"name":"Floridino's Pizza & Pasta","neighborhoods":[],"longitude":-111.8597433,"state":"AZ","stars":4.0,"latitude":33.3118314,"type":"business"}
{"business_id":"bJB4GG_DASDIErjRdRhQWw","full_address":"4710 E Rose Garden Ln\nPhoenix, AZ 85050","open":true,"categories":["Shopping","Drugstores","Beauty & Spas","Food","Convenience Stores","Cosmetics & Beauty Supply"],"city":"Phoenix","review_count":4,"name":"Walgreens","neighborhoods":[],"longitude":-111.978861,"state":"AZ","stars":4.0,"latitude":33.677443,"type":"business"}
{"business_id":"35Om8exyCLHWeijbxDPB1w","full_address":"626 W Union Hills Dr\nPhoenix, AZ 85027","open":true,"categories":["Burgers","Fast Food","Restaurants"],"city":"Phoenix","review_count":4,"name":"McDonald's","neighborhoods":[],"longitude":-112.082382,"state":"AZ","stars":3.0,"latitude":33.655098,"type":"business"}
{"business_id":"5x3aA0DSo8nqU13IZyH79A","full_address":"668 N 44th St\nPhoenix, AZ 85008","open":true,"categories":["Food","Ethnic Food","Grocery","Specialty Food"],"city":"Phoenix","review_count":50,"name":"Super L Ranch Market","neighborhoods":[],"longitude":-111.9878697,"state":"AZ","stars":4.0,"latitude":33.4552907,"type":"business"}
{"business_id":"aA-02mkM9lkXn8kJC2dseA","full_address":"1 N. Central Ave\nPhoenix, AZ 85004","open":true,"categories":["Food","Coffee & Tea"],"city":"Phoenix","review_count":3,"name":"The Daily Grind","neighborhoods":[],"longitude":-112.073195,"state":"AZ","stars":3.5,"latitude":33.448654,"type":"business"}
{"business_id":"8v1MWkAeU3nEuqGd27jZeQ","full_address":"6245 E Bell Rd\nSte 111\nScottsdale, AZ 85254","open":true,"categories":["Cuban","Latin American","Restaurants"],"city":"Scottsdale","review_count":85,"name":"Havana Cafe","neighborhoods":[],"longitude":-111.94439,"state":"AZ","stars":3.5,"latitude":33.639896,"type":"business"}
{"business_id":"8KSK12p77qHb4gvN6DAncg","full_address":"3622 W Pinnacle Peak Rd\nGlendale, AZ 85308","open":true,"categories":["Beauty & Spas","Nail Salons"],"city":"Glendale","review_count":8,"name":"The Polish Room","neighborhoods":[],"longitude":-112.1401701,"state":"AZ","stars":4.5,"latitude":33.698323,"type":"business"}
{"business_id":"1CwRtFemRPSZuoOlEGpqIw","full_address":"4747 E Bell Rd\nPhoenix, AZ 85032","open":false,"categories":["Food","Ice Cream & Frozen Yogurt"],"city":"Phoenix","review_count":4,"name":"Orange Leaf Frozen Yogurt","neighborhoods":[],"longitude":-111.979435,"state":"AZ","stars":4.5,"latitude":33.638907,"type":"business"}
{"business_id":"mKqoXA8k8vO0Y_O2HYYhFg","full_address":"8919 E Indian Bend Rd\nScottsdale, AZ 85250","open":false,"categories":["Books, Mags, Music & Video","Shopping","Bookstores"],"city":"Scottsdale","review_count":3,"name":"Bookstar","neighborhoods":[],"longitude":-111.8890197,"state":"AZ","stars":3.5,"latitude":33.5384216,"type":"business"}
{"business_id":"Dm5K0Zvw8mqrps-jFjgIaw","full_address":"1625 N Central Ave\nPhoenix, AZ 85004","open":true,"categories":["Caterers","American (New)","Event Planning & Services","Restaurants"],"city":"Phoenix","review_count":9,"name":"Palette","neighborhoods":[],"longitude":-112.0734116,"state":"AZ","stars":4.0,"latitude":33.4673017,"type":"business"}
{"business_id":"7p0OI2Ld46-EzJkRHGQEJQ","full_address":"3414 N 40th St\nPhoenix, AZ 85018","open":true,"categories":["Shopping","Nurseries & Gardening","Home & Garden"],"city":"Phoenix","review_count":46,"name":"Baker Nursery","neighborhoods":[],"longitude":-111.9954929,"state":"AZ","stars":5.0,"latitude":33.4886986,"type":"business"}
{"business_id":"wOhm50GKKVuOF-CfapJyWg","full_address":"133 S Country Club Drive\nMesa, AZ 85210","open":true,"categories":["Auto Repair","Automotive"],"city":"Mesa","review_count":4,"name":"Bud's Service Center","neighborhoods":[],"longitude":-111.8397455,"state":"AZ","stars":3.0,"latitude":33.4121834,"type":"business"}
{"business_id":"Q5diW79GD0MSJ10j1HCf8Q","full_address":"11025 N Black Canyon Hwy\nPhoenix, AZ 85073","open":false,"categories":["American (Traditional)","American (New)","Restaurants"],"city":"Phoenix","review_count":4,"name":"TGI Friday's","neighborhoods":[],"longitude":-112.11578,"state":"AZ","stars":1.0,"latitude":33.586891,"type":"business"}
{"business_id":"c2UoyBz91Vk0b6zLWBFRlg","full_address":"6002 N Granite Reef Rd\nScottsdale, AZ 85250","open":true,"categories":["Automotive","Gas & Service Stations"],"city":"Scottsdale","review_count":5,"name":"Taylor's Gas & Auto","neighborhoods":[],"longitude":-111.90053,"state":"AZ","stars":5.0,"latitude":33.52425,"type":"business"}
{"business_id":"To5CjntVFawXM_hpAhvVdQ","full_address":"5029 N 44th St\nPhoenix, AZ 85018","open":true,"categories":["Gastropubs","Restaurants"],"city":"Phoenix","review_count":52,"name":"Wally's' American Pub N Grill","neighborhoods":[],"longitude":-111.9865579,"state":"AZ","stars":4.0,"latitude":33.5106961,"type":"business"}
{"business_id":"2Uv73BJCv6l8UD_3O2gOZg","full_address":"6917 E Thomas Road\nScottsdale, AZ 85251","open":true,"categories":["Tobacco Shops","Shopping"],"city":"Scottsdale","review_count":7,"name":"Hiland's Cigar's","neighborhoods":[],"longitude":-111.931221,"state":"AZ","stars":4.5,"latitude":33.480061,"type":"business"}
{"business_id":"RqpoHP1Ei8Wn_jX478kybg","full_address":"29850 N Tatum Blvd\nCave Creek, AZ 85331","open":true,"categories":["Local Services","Dry Cleaning & Laundry"],"city":"Cave Creek","review_count":4,"name":"Titan Cleaners","neighborhoods":[],"longitude":-111.992641,"state":"AZ","stars":4.0,"latitude":33.756006,"type":"business"}
{"business_id":"_tqUyEHN0pKnALyhY6BNFg","full_address":"72 W Rio Salado Pkwy\nTempe, AZ 85281","open":true,"categories":["Active Life","Boating","Rafting\/Kayaking"],"city":"Tempe","review_count":5,"name":"Tempe Town Lake Boat Rentals","neighborhoods":[],"longitude":-111.9407222,"state":"AZ","stars":3.5,"latitude":33.4295988,"type":"business"}
{"business_id":"-7XuLxfYwZ9x72mEKXdv0A","full_address":"5037 W Thomas Rd\nPhoenix, AZ 85035","open":true,"categories":["Chinese","Restaurants"],"city":"Phoenix","review_count":7,"name":"Lin's Golden Chinese Restaurant","neighborhoods":[],"longitude":-112.167718,"state":"AZ","stars":4.5,"latitude":33.48001,"type":"business"}
{"business_id":"wNbBU48BXDYXuH3w_a61gA","full_address":"5031 E Ray Road\nPhoenix, AZ 85044","open":true,"categories":["Arts & Crafts","Shopping","Costumes"],"city":"Phoenix","review_count":7,"name":"Party City","neighborhoods":[],"longitude":-111.975537,"state":"AZ","stars":1.5,"latitude":33.3197757,"type":"business"}
{"business_id":"VsO_rhXi5lgbaGxNwoEZsQ","full_address":"905 N 4th St\nPhoenix, AZ 85004","open":false,"categories":["Asian Fusion","Chinese","Restaurants"],"city":"Phoenix","review_count":91,"name":"Fate 905","neighborhoods":[],"longitude":-112.0686108,"state":"AZ","stars":3.0,"latitude":33.4577071,"type":"business"}
{"business_id":"n6Hau_a7miaQtlb6gC2boQ","full_address":"5830 W Thunderbird Rd\nB1\nGlendale, AZ 85306","open":true,"categories":["Chinese","Restaurants"],"city":"Glendale","review_count":16,"name":"Cafe China","neighborhoods":[],"longitude":-112.184263,"state":"AZ","stars":4.5,"latitude":33.612363,"type":"business"}
{"business_id":"b1rF_Y3xbdPwP_z9NHFMjQ","full_address":"15000 N Airport Dr\nSte 100\nScottsdale, AZ 85260","open":true,"categories":["American (New)","Restaurants"],"city":"Scottsdale","review_count":24,"name":"Zulu Caffe","neighborhoods":[],"longitude":-111.9166857,"state":"AZ","stars":4.0,"latitude":33.6211306,"type":"business"}
{"business_id":"GV5kqyrnOTdVr1VEd-Ji5Q","full_address":"3435 W Pinnacle Peak\nPhoenix, AZ 85027","open":true,"categories":["Playgrounds","Gyms","Local Services","Fitness & Instruction","Active Life","Community Service\/Non-Profit"],"city":"Phoenix","review_count":3,"name":"Goelet A. C. Beuf Community Center","neighborhoods":[],"longitude":-112.132915,"state":"AZ","stars":4.5,"latitude":33.6962339,"type":"business"}
{"business_id":"0j2UisBk89SHqihr0IdlJw","full_address":"922 E Apache Blvd\nTempe, AZ 85281","open":true,"categories":["Pizza","Restaurants"],"city":"Tempe","review_count":14,"name":"Sal's Pizza","neighborhoods":[],"longitude":-111.9258567,"state":"AZ","stars":3.5,"latitude":33.414851,"type":"business"}
{"business_id":"YQittH1-yoZelJIMQTBg3w","full_address":"304 N Center Street\nMesa, AZ 85201","open":true,"categories":["Auto Repair","Automotive"],"city":"Mesa","review_count":3,"name":"Imports & American Auto Service","neighborhoods":[],"longitude":-111.831884,"state":"AZ","stars":5.0,"latitude":33.4219694,"type":"business"}
{"business_id":"-ux2HqhfQqldjxSt8vdSwQ","full_address":"2121 N 83rd Ave\nPhoenix, AZ 85035","open":true,"categories":["Arts & Entertainment","Nightlife","Music Venues"],"city":"Phoenix","review_count":19,"name":"Cricket Wireless Pavilion","neighborhoods":[],"longitude":-112.232875,"state":"AZ","stars":3.5,"latitude":33.470823,"type":"business"}
{"business_id":"LECZItT9M82AcMnd3r1CTQ","full_address":"1050 E Ray Rd\nSte 4A\nChandler, AZ 85225","open":true,"categories":["Health & Medical","Physical Therapy","Massage","Beauty & Spas"],"city":"Chandler","review_count":10,"name":"Lifequest Chiropractic & Massage","neighborhoods":[],"longitude":-111.822674,"state":"AZ","stars":4.5,"latitude":33.322668,"type":"business"}
{"business_id":"o2BeeJmpf_J9EmC8HQoHRA","full_address":"Montelucia Resort & Spa\n4949 E Lincoln Dr\nParadise Valley, AZ 85253","open":true,"categories":["Food","Convenience Stores","American (New)","Cafes","Restaurants"],"city":"Paradise Valley","review_count":12,"name":"Crave Cafe","neighborhoods":[],"longitude":-111.9641728,"state":"AZ","stars":4.0,"latitude":33.5388471,"type":"business"}
{"business_id":"57Ntmms5Qq0zqZTIUN2DZQ","full_address":"4861 W McDowell Road\nPhoenix, AZ 85035","open":true,"categories":["Hotels & Travel","Event Planning & Services","Hotels"],"city":"Phoenix","review_count":4,"name":"Crossland Economy Studios","neighborhoods":[],"longitude":-112.1649839,"state":"AZ","stars":2.5,"latitude":33.4658536,"type":"business"}
{"business_id":"p5HEHFZwbztIkpI4ItbX2w","full_address":"3114 E Cactus Rd\nPhoenix, AZ 85032","open":true,"categories":["Bars","Nightlife"],"city":"Phoenix","review_count":10,"name":"Dodey's Bar","neighborhoods":[],"longitude":-112.014589,"state":"AZ","stars":4.0,"latitude":33.597322,"type":"business"}
{"business_id":"4TqCyWoWmUpghIVAiSo--g","full_address":"410 E Thunderbird Rd\nPhoenix, AZ 85022","open":false,"categories":["American (New)","Restaurants"],"city":"Phoenix","review_count":15,"name":"Basis New American","neighborhoods":[],"longitude":-112.0662499,"state":"AZ","stars":4.5,"latitude":33.6077095,"type":"business"}
{"business_id":"N-T3Ti7n9j7mA5XK8oHK9g","full_address":"3310 N Hayden Road\nSuite 103\nScottsdale, AZ 85251","open":true,"categories":["Beauty & Spas","Nail Salons"],"city":"Scottsdale","review_count":3,"name":"Nature Nails Center","neighborhoods":[],"longitude":-111.922301,"state":"AZ","stars":3.5,"latitude":33.493947,"type":"business"}
{"business_id":"MsNRtBLPfZQ5xH9lPbk3_A","full_address":"20020 N 59th Ave\nSte 105\nGlendale, AZ 85308","open":true,"categories":["Food","Do-It-Yourself Food","Pizza","Restaurants"],"city":"Glendale","review_count":4,"name":"Papa Murphy's Pizza","neighborhoods":[],"longitude":-112.1868621,"state":"AZ","stars":4.0,"latitude":33.6668491,"type":"business"}
{"business_id":"rTrZcAyxhIws62yA_f4huA","full_address":"9550 W Van Buren St\nTolleson, AZ 85353","open":true,"categories":["Pizza","Restaurants"],"city":"Tolleson","review_count":3,"name":"Adam's Pizza and Wings","neighborhoods":[],"longitude":-112.2658301,"state":"AZ","stars":3.0,"latitude":33.4503105,"type":"business"}
{"business_id":"YKuuE9tWiGUYd14WbtAk_A","full_address":"1752 S Signal Butte Rd\nMesa, AZ 85209","open":true,"categories":["Food","Ice Cream & Frozen Yogurt"],"city":"Mesa","review_count":3,"name":"Cold Stone Creamery Superstition Gateway Center","neighborhoods":[],"longitude":-111.599068,"state":"AZ","stars":3.5,"latitude":33.382918,"type":"business"}
{"business_id":"fQR9fI8LxUCUidXYgzWPtg","full_address":"1955 W Baseline Road\nMesa, AZ 85202","open":true,"categories":["Post Offices","Public Services & Government"],"city":"Mesa","review_count":3,"name":"The Ups Store","neighborhoods":[],"longitude":-111.8771893,"state":"AZ","stars":2.0,"latitude":33.3784895,"type":"business"}
{"business_id":"W9NvpbO97Bh0E2vyj-87fg","full_address":"16852 E Parkview Ave\nFountain Hills, AZ 85268","open":true,"categories":["American (Traditional)","Pizza","Restaurants"],"city":"Fountain Hills","review_count":7,"name":"Phil's Filling Station Grill","neighborhoods":[],"longitude":-111.715544,"state":"AZ","stars":3.5,"latitude":33.6058,"type":"business"}
{"business_id":"eHN6eErehDXorUfE_u_rzA","full_address":"750 E Guadalupe Road\nTempe, AZ 85283","open":true,"categories":["Food","Grocery"],"city":"Tempe","review_count":4,"name":"Albertsons Osco","neighborhoods":[],"longitude":-111.9298375,"state":"AZ","stars":3.0,"latitude":33.3649615,"type":"business"}
{"business_id":"zLhfnbcnGg01_lltvrHVBQ","full_address":"4727 E Cactus Rd\nSte 124\nPhoenix, AZ 85032","open":true,"categories":["Veterinarians","Pets"],"city":"Phoenix","review_count":10,"name":"Phoenix Mountain Animal Hospital","neighborhoods":[],"longitude":-111.9790497,"state":"AZ","stars":5.0,"latitude":33.5980404,"type":"business"}
{"business_id":"LTFboQhVd8zly-IQ1goNig","full_address":"34830 N North Valley Pkwy\nPhoenix, AZ 85086","open":true,"categories":["Women's Clothing","Men's Clothing","Fashion","Shopping","Shoe Stores"],"city":"Phoenix","review_count":3,"name":"Kohl's Department Stores","neighborhoods":[],"longitude":-112.071399,"state":"AZ","stars":5.0,"latitude":33.54255,"type":"business"}
{"business_id":"pas-y6Ki4gcxKfq2UhJGeQ","full_address":"2730 E Baseline Rd\nMesa, AZ 85204","open":false,"categories":["Bars","Restaurants","American (Traditional)","Sports Bars","Nightlife"],"city":"Mesa","review_count":4,"name":"Famous Sam's Restaurant & Sports Bar","neighborhoods":[],"longitude":-111.772697,"state":"AZ","stars":2.5,"latitude":33.379574,"type":"business"}
{"business_id":"Cd9L6IpADBT6_vGvAICTog","full_address":"18700 N 107th Ave\nSte 29\nSun City, AZ 85373","open":true,"categories":["Barbers","Beauty & Spas"],"city":"Sun City","review_count":3,"name":"JJ's Barber Shop","neighborhoods":[],"longitude":-112.2900174,"state":"AZ","stars":5.0,"latitude":33.6532332,"type":"business"}
{"business_id":"3dOUEmJjFfb8iW0H-kbEzQ","full_address":"1818 E Baseline Rd\nTempe, AZ 85281","open":true,"categories":["Department Stores","Fashion","Shopping"],"city":"Tempe","review_count":20,"name":"Target","neighborhoods":[],"longitude":-111.792532419,"state":"AZ","stars":4.0,"latitude":33.3799878485,"type":"business"}
{"business_id":"fMqEPInEm9Fl5h8oJWPEjA","full_address":"1935 E Camelback Road\nPhoenix, AZ 85016","open":true,"categories":[],"city":"Phoenix","review_count":3,"name":"Vitamin Shoppe","neighborhoods":[],"longitude":-112.041489,"state":"AZ","stars":4.5,"latitude":33.508736,"type":"business"}
{"business_id":"wF4FeAIFZUyyhNiaKKNXEQ","full_address":"5865 W Ray Rd\nChandler, AZ 85226","open":false,"categories":["Chinese","Restaurants"],"city":"Chandler","review_count":19,"name":"Szechuan Cuisine","neighborhoods":[],"longitude":-111.9433879852,"state":"AZ","stars":4.0,"latitude":33.3187306943,"type":"business"}
{"business_id":"U6imYlP52NIIGaTAI72i7Q","full_address":"Phoenix, AZ 85035","open":true,"categories":["Food","Street Vendors"],"city":"Phoenix","review_count":10,"name":"Emerson Fry Bread","neighborhoods":[],"longitude":-112.1966734,"state":"AZ","stars":4.0,"latitude":33.4688044,"type":"business"}
